[{"codReg":16,"tipoStazione":3,"dettZoomStaz":[],"pstaz":[],"mappaCitta":{"urlImagePinpoint":"","urlImageBaloon":""},"codiceStazione":"S11306","codStazione":"S11306","lat":40.825216,"lon":16.418926,"latMappaCitta":0.0,"lonMappaCitta":0.0,"localita":{"nomeLungo":"GRAVINA IN PUGLIA","nomeBreve":"Gravina in P.","label":"","id":"S11306"},"esterno":false,"offsetX":0,"offsetY":0,"nomeCitta":"A"},{"codReg":16,"tipoStazione":3,"dettZoomStaz":[],"pstaz":[],"mappaCitta":{"urlImagePinpoint":"","urlImageBaloon":""},"codiceStazione":"S11509","codStazione":"S11509","lat":40.601744,"lon":17.065478,"latMappaCitta":0.0,"lonMappaCitta":0.0,"localita":{"nomeLungo":"PALAGIANO MOTTOLA","nomeBreve":"Palagiano Mott.","label":"","id":"S11509"},"esterno":false,"offsetX":0,"offsetY":0,"nomeCitta":"A"},{"codReg":16,"tipoStazione":3,"dettZoomStaz":[],"pstaz":[],"mappaCitta":{"urlImagePinpoint":"","urlImageBaloon":""},"codiceStazione":"S11601","codStazione":"S11601","lat":40.523852,"lon":17.361457,"latMappaCitta":0.0,"lonMappaCitta":0.0,"localita":{"nomeLungo":"MONTEIASI","nomeBreve":"Monteiasi","label":"","id":"S11601"},"esterno":false,"offsetX":0,"offsetY":0,"nomeCitta":"A"},{"codReg":16,"tipoStazione":3,"dettZoomStaz":[],"pstaz":[],"mappaCitta":{"urlImagePinpoint":"","urlImageBaloon":""},"codiceStazione":"S11107","codStazione":"S11107","lat":41.343,"lon":16.136024,"latMappaCitta":0.0,"lonMappaCitta":0.0,"localita":{"nomeLungo":"MARGHERITA DI SAV./OFANTINO","nomeBreve":"Margherita S.Of.","label":"","id":"S11107"},"esterno":false,"offsetX":0,"offsetY":0,"nomeCitta":"A"},{"codReg":16,"tipoStazione":3,"dettZoomStaz":[],"pstaz":[],"mappaCitta":{"urlImagePinpoint":"","urlImageBaloon":""},"codiceStazione":"S11403","codStazione":"S11403","lat":41.081788,"lon":16.074974,"latMappaCitta":0.0,"lonMappaCitta":0.0,"localita":{"nomeLungo":"MINERVINO MURGE","nomeBreve":"Minervino Murge","label":"","id":"S11403"},"esterno":false,"offsetX":0,"offsetY":0,"nomeCitta":"A"},{"codReg":16,"tipoStazione":3,"dettZoomStaz":[{"codiceStazione":"S11137","zoomStartRange":8,"zoomStopRange":9,"pinpointVisibile":true,"pinpointVisible":true,"labelVisibile":true,"labelVisible":true,"codiceRegione":null},{"codiceStazione":"S11137","zoomStartRange":10,"zoomStopRange":11,"pinpointVisibile":true,"pinpointVisible":true,"labelVisibile":true,"labelVisible":true,"codiceRegione":null}],"pstaz":[],"mappaCitta":{"urlImagePinpoint":"","urlImageBaloon":""},"codiceStazione":"S11137","codStazione":"S11137","lat":40.633543,"lon":17.94863,"latMappaCitta":0.0,"lonMappaCitta":0.0,"localita":{"nomeLungo":"BRINDISI MARITTIMA","nomeBreve":"Brindisi Maritt.","label":"","id":"S11137"},"esterno":false,"offsetX":-4,"offsetY":18,"nomeCitta":"Brindisi Marittima"},{"codReg":16,"tipoStazione":3,"dettZoomStaz":[],"pstaz":[],"mappaCitta":{"urlImagePinpoint":"","urlImageBaloon":""},"codiceStazione":"S11105","codStazione":"S11105","lat":41.346664,"lon":15.996588,"latMappaCitta":0.0,"lonMappaCitta":0.0,"localita":{"nomeLungo":"CANDIDA","nomeBreve":"Candida","label":"","id":"S11105"},"esterno":false,"offsetX":0,"offsetY":0,"nomeCitta":"A"},{"codReg":16,"tipoStazione":3,"dettZoomStaz":[],"pstaz":[],"mappaCitta":{"urlImagePinpoint":"","urlImageBaloon":""},"codiceStazione":"S11463","codStazione":"S11463","lat":40.481111,"lon":16.965434,"latMappaCitta":0.0,"lonMappaCitta":0.0,"localita":{"nomeLungo":"CASTELLANETA MARINA","nomeBreve":"Castellaneta M.","label":"","id":"S11463"},"esterno":false,"offsetX":0,"offsetY":0,"nomeCitta":"A"},{"codReg":16,"tipoStazione":3,"dettZoomStaz":[],"pstaz":[],"mappaCitta":{"urlImagePinpoint":"","urlImageBaloon":""},"codiceStazione":"S09322","codStazione":"S09322","lat":41.319829,"lon":15.421123,"latMappaCitta":0.0,"lonMappaCitta":0.0,"localita":{"nomeLungo":"TROIA CASTELLUCCIO SAURI","nomeBreve":"Troia Cast.Sauri","label":"","id":"S09322"},"esterno":false,"offsetX":0,"offsetY":0,"nomeCitta":"A"},{"codReg":16,"tipoStazione":3,"dettZoomStaz":[{"codiceStazione":"S11021","zoomStartRange":8,"zoomStopRange":9,"pinpointVisibile":true,"pinpointVisible":true,"labelVisibile":true,"labelVisible":true,"codiceRegione":null},{"codiceStazione":"S11021","zoomStartRange":10,"zoomStopRange":11,"pinpointVisibile":true,"pinpointVisible":true,"labelVisibile":true,"labelVisible":true,"codiceRegione":null}],"pstaz":[],"mappaCitta":{"urlImagePinpoint":"","urlImageBaloon":""},"codiceStazione":"S11021","codStazione":"S11021","lat":41.921962,"lon":15.156645,"latMappaCitta":0.0,"lonMappaCitta":0.0,"localita":{"nomeLungo":"CHIEUTI SERRACAPRIOLA","nomeBreve":"Chieuti Serrac.","label":"","id":"S11021"},"esterno":false,"offsetX":-4,"offsetY":10,"nomeCitta":"Chieuti Serrac."},{"codReg":16,"tipoStazione":3,"dettZoomStaz":[],"pstaz":[],"mappaCitta":{"urlImagePinpoint":"","urlImageBaloon":""},"codiceStazione":"S11051","codStazione":"S11051","lat":41.518025,"lon":15.732569,"latMappaCitta":0.0,"lonMappaCitta":0.0,"localita":{"nomeLungo":"AMENDOLA","nomeBreve":"Amendola","label":"","id":"S11051"},"esterno":false,"offsetX":0,"offsetY":0,"nomeCitta":"A"},{"codReg":16,"tipoStazione":3,"dettZoomStaz":[],"pstaz":[],"mappaCitta":{"urlImagePinpoint":"","urlImageBaloon":""},"codiceStazione":"S11053","codStazione":"S11053","lat":41.58364,"lon":15.861727,"latMappaCitta":0.0,"lonMappaCitta":0.0,"localita":{"nomeLungo":"FRATTAROLO","nomeBreve":"Frattarolo","label":"","id":"S11053"},"esterno":false,"offsetX":0,"offsetY":0,"nomeCitta":"A"},{"codReg":16,"tipoStazione":3,"dettZoomStaz":[],"pstaz":[],"mappaCitta":{"urlImagePinpoint":"","urlImageBaloon":""},"codiceStazione":"S11054","codStazione":"S11054","lat":41.623046,"lon":15.908142,"latMappaCitta":0.0,"lonMappaCitta":0.0,"localita":{"nomeLungo":"MANFREDONIA","nomeBreve":"Manfredonia","label":"","id":"S11054"},"esterno":false,"offsetX":0,"offsetY":0,"nomeCitta":"A"},{"codReg":16,"tipoStazione":3,"dettZoomStaz":[],"pstaz":[],"mappaCitta":{"urlImagePinpoint":"","urlImageBaloon":""},"codiceStazione":"S11106","codStazione":"S11106","lat":41.349677,"lon":16.090839,"latMappaCitta":0.0,"lonMappaCitta":0.0,"localita":{"nomeLungo":"TRINITAPOLI S.FERDIN. DI P.","nomeBreve":"Trinitapoli","label":"","id":"S11106"},"esterno":false,"offsetX":0,"offsetY":0,"nomeCitta":"A"},{"codReg":16,"tipoStazione":4,"dettZoomStaz":[{"codiceStazione":"S11119","zoomStartRange":8,"zoomStopRange":9,"pinpointVisibile":true,"pinpointVisible":true,"labelVisibile":true,"labelVisible":true,"codiceRegione":null},{"codiceStazione":"S11119","zoomStartRange":10,"zoomStopRange":11,"pinpointVisibile":true,"pinpointVisible":true,"labelVisibile":true,"labelVisible":true,"codiceRegione":null}],"pstaz":[],"mappaCitta":{"urlImagePinpoint":"","urlImageBaloon":""},"codiceStazione":"S11119","codStazione":"S11119","lat":41.11774,"lon":16.869601,"latMappaCitta":0.0,"lonMappaCitta":0.0,"localita":{"nomeLungo":"BARI CENTRALE","nomeBreve":"Bari C.le","label":"Bari","id":"S11119"},"esterno":false,"offsetX":-4,"offsetY":18,"nomeCitta":"Bari"},{"codReg":16,"tipoStazione":3,"dettZoomStaz":[{"codiceStazione":"S11130","zoomStartRange":8,"zoomStopRange":9,"pinpointVisibile":true,"pinpointVisible":true,"labelVisibile":true,"labelVisible":true,"codiceRegione":null},{"codiceStazione":"S11130","zoomStartRange":10,"zoomStopRange":11,"pinpointVisibile":true,"pinpointVisible":true,"labelVisibile":true,"labelVisible":true,"codiceRegione":null}],"pstaz":[],"mappaCitta":{"urlImagePinpoint":"","urlImageBaloon":""},"codiceStazione":"S11130","codStazione":"S11130","lat":40.851753,"lon":17.3859,"latMappaCitta":0.0,"lonMappaCitta":0.0,"localita":{"nomeLungo":"FASANO","nomeBreve":"Fasano","label":"","id":"S11130"},"esterno":false,"offsetX":-4,"offsetY":18,"nomeCitta":"Fasano"},{"codReg":16,"tipoStazione":3,"dettZoomStaz":[],"pstaz":[],"mappaCitta":{"urlImagePinpoint":"","urlImageBaloon":""},"codiceStazione":"S11133","codStazione":"S11133","lat":40.737337,"lon":17.683791,"latMappaCitta":0.0,"lonMappaCitta":0.0,"localita":{"nomeLungo":"CAROVIGNO","nomeBreve":"Carovigno","label":"","id":"S11133"},"esterno":false,"offsetX":0,"offsetY":0,"nomeCitta":"A"},{"codReg":16,"tipoStazione":3,"dettZoomStaz":[],"pstaz":[],"mappaCitta":{"urlImagePinpoint":"","urlImageBaloon":""},"codiceStazione":"S11135","codStazione":"S11135","lat":40.650352,"lon":17.818585,"latMappaCitta":0.0,"lonMappaCitta":0.0,"localita":{"nomeLungo":"S.VITO DEI NORMANNI","nomeBreve":"S.Vito Normanni","label":"","id":"S11135"},"esterno":false,"offsetX":0,"offsetY":0,"nomeCitta":"A"},{"codReg":16,"tipoStazione":3,"dettZoomStaz":[],"pstaz":[],"mappaCitta":{"urlImagePinpoint":"","urlImageBaloon":""},"codiceStazione":"S11142","codStazione":"S11142","lat":40.439266,"lon":18.046097,"latMappaCitta":0.0,"lonMappaCitta":0.0,"localita":{"nomeLungo":"SQUINZANO","nomeBreve":"Squinzano","label":"","id":"S11142"},"esterno":false,"offsetX":0,"offsetY":0,"nomeCitta":"A"},{"codReg":16,"tipoStazione":3,"dettZoomStaz":[],"pstaz":[],"mappaCitta":{"urlImagePinpoint":"","urlImageBaloon":""},"codiceStazione":"S11202","codStazione":"S11202","lat":41.315006,"lon":15.620567,"latMappaCitta":0.0,"lonMappaCitta":0.0,"localita":{"nomeLungo":"ORDONA","nomeBreve":"Ordona","label":"","id":"S11202"},"esterno":false,"offsetX":0,"offsetY":0,"nomeCitta":"A"},{"codReg":16,"tipoStazione":3,"dettZoomStaz":[{"codiceStazione":"S11205","zoomStartRange":8,"zoomStopRange":9,"pinpointVisibile":true,"pinpointVisible":true,"labelVisibile":true,"labelVisible":true,"codiceRegione":null},{"codiceStazione":"S11205","zoomStartRange":10,"zoomStopRange":11,"pinpointVisibile":true,"pinpointVisible":true,"labelVisibile":true,"labelVisible":true,"codiceRegione":null}],"pstaz":[],"mappaCitta":{"urlImagePinpoint":"","urlImageBaloon":""},"codiceStazione":"S11205","codStazione":"S11205","lat":41.1518,"lon":15.53295,"latMappaCitta":0.0,"lonMappaCitta":0.0,"localita":{"nomeLungo":"ROCCHETTA S.ANT.LAC.","nomeBreve":"Rocchetta S.A.L.","label":"","id":"S11205"},"esterno":false,"offsetX":-4,"offsetY":10,"nomeCitta":"Rocchetta S.A.L"},{"codReg":16,"tipoStazione":3,"dettZoomStaz":[],"pstaz":[],"mappaCitta":{"urlImagePinpoint":"","urlImageBaloon":""},"codiceStazione":"S11406","codStazione":"S11406","lat":41.294583,"lon":16.146169,"latMappaCitta":0.0,"lonMappaCitta":0.0,"localita":{"nomeLungo":"CANNE DELLA BATTAGLIA","nomeBreve":"Canne d.Battag.","label":"","id":"S11406"},"esterno":false,"offsetX":0,"offsetY":0,"nomeCitta":"A"},{"codReg":16,"tipoStazione":3,"dettZoomStaz":[],"pstaz":[],"mappaCitta":{"urlImagePinpoint":"","urlImageBaloon":""},"codiceStazione":"S11504","codStazione":"S11504","lat":40.892806,"lon":16.839826,"latMappaCitta":0.0,"lonMappaCitta":0.0,"localita":{"nomeLungo":"ACQUAVIVA DELLE FONTI","nomeBreve":"Acquaviva","label":"","id":"S11504"},"esterno":false,"offsetX":0,"offsetY":0,"nomeCitta":"A"},{"codReg":16,"tipoStazione":3,"dettZoomStaz":[],"pstaz":[],"mappaCitta":{"urlImagePinpoint":"","urlImageBaloon":""},"codiceStazione":"S11603","codStazione":"S11603","lat":40.523145,"lon":17.584714,"latMappaCitta":0.0,"lonMappaCitta":0.0,"localita":{"nomeLungo":"FRANCAVILLA FONTANA","nomeBreve":"Francavilla Font","label":"","id":"S11603"},"esterno":false,"offsetX":0,"offsetY":0,"nomeCitta":"A"},{"codReg":16,"tipoStazione":3,"dettZoomStaz":[],"pstaz":[],"mappaCitta":{"urlImagePinpoint":"","urlImageBaloon":""},"codiceStazione":"S11116","codStazione":"S11116","lat":41.159653,"lon":16.746324,"latMappaCitta":0.0,"lonMappaCitta":0.0,"localita":{"nomeLungo":"BARI S. SPIRITO","nomeBreve":"Bari S.Spirito","label":"","id":"S11116"},"esterno":false,"offsetX":0,"offsetY":0,"nomeCitta":"A"},{"codReg":16,"tipoStazione":4,"dettZoomStaz":[],"pstaz":[],"mappaCitta":{"urlImagePinpoint":"","urlImageBaloon":""},"codiceStazione":"F00050","codStazione":"F00050","lat":41.927825,"lon":15.065002,"latMappaCitta":0.0,"lonMappaCitta":0.0,"localita":{"nomeLungo":"F00050","nomeBreve":"F00050","label":"","id":"F00050"},"esterno":false,"offsetX":0,"offsetY":0,"nomeCitta":"F00050"},{"codReg":16,"tipoStazione":4,"dettZoomStaz":[{"codiceStazione":"F00029","zoomStartRange":6,"zoomStopRange":11,"pinpointVisibile":false,"pinpointVisible":false,"labelVisibile":false,"labelVisible":false,"codiceRegione":null}],"pstaz":[],"mappaCitta":{"urlImagePinpoint":"","urlImageBaloon":""},"codiceStazione":"F00029","codStazione":"F00029","lat":40.576413,"lon":17.028809,"latMappaCitta":0.0,"lonMappaCitta":0.0,"localita":{"nomeLungo":"F00029","nomeBreve":"F00029","label":"","id":"F00029"},"esterno":false,"offsetX":0,"offsetY":0,"nomeCitta":"F00029"},{"codReg":16,"tipoStazione":3,"dettZoomStaz":[],"pstaz":[],"mappaCitta":{"urlImagePinpoint":"","urlImageBaloon":""},"codiceStazione":"S11028","codStazione":"S11028","lat":41.579344,"lon":15.490229,"latMappaCitta":0.0,"lonMappaCitta":0.0,"localita":{"nomeLungo":"RIGNANO GARGANICO","nomeBreve":"Rignano Gargan.","label":"","id":"S11028"},"esterno":false,"offsetX":0,"offsetY":0,"nomeCitta":"A"},{"codReg":16,"tipoStazione":3,"dettZoomStaz":[],"pstaz":[],"mappaCitta":{"urlImagePinpoint":"","urlImageBaloon":""},"codiceStazione":"S11602","codStazione":"S11602","lat":40.528989,"lon":17.424503,"latMappaCitta":0.0,"lonMappaCitta":0.0,"localita":{"nomeLungo":"GROTTAGLIE","nomeBreve":"Grottaglie","label":"","id":"S11602"},"esterno":false,"offsetX":0,"offsetY":0,"nomeCitta":"A"},{"codReg":16,"tipoStazione":3,"dettZoomStaz":[],"pstaz":[],"mappaCitta":{"urlImagePinpoint":"","urlImageBaloon":""},"codiceStazione":"S11307","codStazione":"S11307","lat":40.837666,"lon":16.551739,"latMappaCitta":0.0,"lonMappaCitta":0.0,"localita":{"nomeLungo":"ALTAMURA","nomeBreve":"Altamura","label":"","id":"S11307"},"esterno":false,"offsetX":0,"offsetY":0,"nomeCitta":"A"},{"codReg":16,"tipoStazione":4,"dettZoomStaz":[{"codiceStazione":"S09314","zoomStartRange":8,"zoomStopRange":9,"pinpointVisibile":true,"pinpointVisible":true,"labelVisibile":true,"labelVisible":true,"codiceRegione":null},{"codiceStazione":"S09314","zoomStartRange":10,"zoomStopRange":11,"pinpointVisibile":true,"pinpointVisible":true,"labelVisibile":true,"labelVisible":true,"codiceRegione":null}],"pstaz":[],"mappaCitta":{"urlImagePinpoint":"","urlImageBaloon":""},"codiceStazione":"S09314","codStazione":"S09314","lat":41.140927,"lon":14.918733,"latMappaCitta":0.0,"lonMappaCitta":0.0,"localita":{"nomeLungo":"APICE S.ARCANGELO BONITO","nomeBreve":"Apice S.A.B.","label":"","id":"S09314"},"esterno":true,"offsetX":-4,"offsetY":18,"nomeCitta":"Apice S.A.B."},{"codReg":16,"tipoStazione":3,"dettZoomStaz":[],"pstaz":[],"mappaCitta":{"urlImagePinpoint":"","urlImageBaloon":""},"codiceStazione":"S11024","codStazione":"S11024","lat":41.77664,"lon":15.387809,"latMappaCitta":0.0,"lonMappaCitta":0.0,"localita":{"nomeLungo":"APRICENA","nomeBreve":"Apricena","label":"","id":"S11024"},"esterno":false,"offsetX":0,"offsetY":0,"nomeCitta":"A"},{"codReg":16,"tipoStazione":3,"dettZoomStaz":[],"pstaz":[],"mappaCitta":{"urlImagePinpoint":"","urlImageBaloon":""},"codiceStazione":"S11203","codStazione":"S11203","lat":41.219859,"lon":15.547828,"latMappaCitta":0.0,"lonMappaCitta":0.0,"localita":{"nomeLungo":"ASCOLI SATRIANO","nomeBreve":"Ascoli Satriano","label":"","id":"S11203"},"esterno":false,"offsetX":0,"offsetY":0,"nomeCitta":"A"},{"codReg":16,"tipoStazione":3,"dettZoomStaz":[],"pstaz":[],"mappaCitta":{"urlImagePinpoint":"","urlImageBaloon":""},"codiceStazione":"S11118","codStazione":"S11118","lat":41.151583,"lon":16.766902,"latMappaCitta":0.0,"lonMappaCitta":0.0,"localita":{"nomeLungo":"BARI PALESE MACCHIE","nomeBreve":"Bari Palese M.","label":"","id":"S11118"},"esterno":false,"offsetX":0,"offsetY":0,"nomeCitta":"A"},{"codReg":16,"tipoStazione":3,"dettZoomStaz":[],"pstaz":[],"mappaCitta":{"urlImagePinpoint":"","urlImageBaloon":""},"codiceStazione":"S11513","codStazione":"S11513","lat":41.105467,"lon":16.830255,"latMappaCitta":0.0,"lonMappaCitta":0.0,"localita":{"nomeLungo":"BARI S.ANDREA","nomeBreve":"Bari S.Andrea","label":"","id":"S11513"},"esterno":false,"offsetX":0,"offsetY":0,"nomeCitta":"A"},{"codReg":16,"tipoStazione":3,"dettZoomStaz":[],"pstaz":[],"mappaCitta":{"urlImagePinpoint":"","urlImageBaloon":""},"codiceStazione":"S11150","codStazione":"S11150","lat":41.093779,"lon":16.950084,"latMappaCitta":0.0,"lonMappaCitta":0.0,"localita":{"nomeLungo":"BARI S.GIORGIO","nomeBreve":"Bari S.Giorgio","label":"","id":"S11150"},"esterno":false,"offsetX":0,"offsetY":0,"nomeCitta":"A"},{"codReg":16,"tipoStazione":3,"dettZoomStaz":[],"pstaz":[],"mappaCitta":{"urlImagePinpoint":"","urlImageBaloon":""},"codiceStazione":"S11113","codStazione":"S11113","lat":41.235445,"lon":16.499484,"latMappaCitta":0.0,"lonMappaCitta":0.0,"localita":{"nomeLungo":"BISCEGLIE","nomeBreve":"Bisceglie","label":"","id":"S11113"},"esterno":false,"offsetX":0,"offsetY":0,"nomeCitta":"A"},{"codReg":16,"tipoStazione":3,"dettZoomStaz":[],"pstaz":[],"mappaCitta":{"urlImagePinpoint":"","urlImageBaloon":""},"codiceStazione":"S11501","codStazione":"S11501","lat":41.041481,"lon":16.74053,"latMappaCitta":0.0,"lonMappaCitta":0.0,"localita":{"nomeLungo":"BITETTO PALO DEL COLLE","nomeBreve":"Bitetto","label":"","id":"S11501"},"esterno":false,"offsetX":0,"offsetY":0,"nomeCitta":"A"},{"codReg":16,"tipoStazione":3,"dettZoomStaz":[],"pstaz":[],"mappaCitta":{"urlImagePinpoint":"","urlImageBaloon":""},"codiceStazione":"S09321","codStazione":"S09321","lat":41.27835,"lon":15.369255,"latMappaCitta":0.0,"lonMappaCitta":0.0,"localita":{"nomeLungo":"BOVINO DELICETO","nomeBreve":"Bovino Deliceto","label":"","id":"S09321"},"esterno":false,"offsetX":0,"offsetY":0,"nomeCitta":"A"},{"codReg":16,"tipoStazione":3,"dettZoomStaz":[],"pstaz":[],"mappaCitta":{"urlImagePinpoint":"","urlImageBaloon":""},"codiceStazione":"S11204","codStazione":"S11204","lat":41.151439,"lon":15.533163,"latMappaCitta":0.0,"lonMappaCitta":0.0,"localita":{"nomeLungo":"CANDELA","nomeBreve":"Candela","label":"","id":"S11204"},"esterno":false,"offsetX":0,"offsetY":0,"nomeCitta":"A"},{"codReg":16,"tipoStazione":3,"dettZoomStaz":[],"pstaz":[],"mappaCitta":{"urlImagePinpoint":"","urlImageBaloon":""},"codiceStazione":"S11402","codStazione":"S11402","lat":41.218556,"lon":16.053906,"latMappaCitta":0.0,"lonMappaCitta":0.0,"localita":{"nomeLungo":"CANOSA DI PUGLIA","nomeBreve":"Canosa di Puglia","label":"","id":"S11402"},"esterno":false,"offsetX":0,"offsetY":0,"nomeCitta":"A"},{"codReg":16,"tipoStazione":3,"dettZoomStaz":[],"pstaz":[],"mappaCitta":{"urlImagePinpoint":"","urlImageBaloon":""},"codiceStazione":"S11309","codStazione":"S11309","lat":40.799021,"lon":16.647908,"latMappaCitta":0.0,"lonMappaCitta":0.0,"localita":{"nomeLungo":"CASAL SABINI","nomeBreve":"Casal Sabini","label":"","id":"S11309"},"esterno":false,"offsetX":0,"offsetY":0,"nomeCitta":"A"},{"codReg":16,"tipoStazione":3,"dettZoomStaz":[],"pstaz":[],"mappaCitta":{"urlImagePinpoint":"","urlImageBaloon":""},"codiceStazione":"S11103","codStazione":"S11103","lat":41.315664,"lon":15.897298,"latMappaCitta":0.0,"lonMappaCitta":0.0,"localita":{"nomeLungo":"CERIGNOLA","nomeBreve":"Cerignola","label":"","id":"S11103"},"esterno":false,"offsetX":0,"offsetY":0,"nomeCitta":"A"},{"codReg":16,"tipoStazione":3,"dettZoomStaz":[{"codiceStazione":"S11200","zoomStartRange":8,"zoomStopRange":9,"pinpointVisibile":true,"pinpointVisible":true,"labelVisibile":true,"labelVisible":true,"codiceRegione":null},{"codiceStazione":"S11200","zoomStartRange":10,"zoomStopRange":11,"pinpointVisibile":true,"pinpointVisible":true,"labelVisibile":true,"labelVisible":true,"codiceRegione":null}],"pstaz":[],"mappaCitta":{"urlImagePinpoint":"","urlImageBaloon":""},"codiceStazione":"S11200","codStazione":"S11200","lat":41.397604,"lon":15.595704,"latMappaCitta":0.0,"lonMappaCitta":0.0,"localita":{"nomeLungo":"CERVARO","nomeBreve":"Cervaro","label":"","id":"S11200"},"esterno":false,"offsetX":48,"offsetY":20,"nomeCitta":"Cervaro"},{"codReg":16,"tipoStazione":4,"dettZoomStaz":[{"codiceStazione":"S11461","zoomStartRange":8,"zoomStopRange":9,"pinpointVisibile":true,"pinpointVisible":true,"labelVisibile":true,"labelVisible":true,"codiceRegione":null},{"codiceStazione":"S11461","zoomStartRange":10,"zoomStopRange":11,"pinpointVisibile":true,"pinpointVisible":true,"labelVisibile":true,"labelVisible":true,"codiceRegione":null}],"pstaz":[],"mappaCitta":{"urlImagePinpoint":"","urlImageBaloon":""},"codiceStazione":"S11461","codStazione":"S11461","lat":40.368496,"lon":16.815176,"latMappaCitta":0.0,"lonMappaCitta":0.0,"localita":{"nomeLungo":"METAPONTO","nomeBreve":"Metaponto","label":"","id":"S11461"},"esterno":true,"offsetX":0,"offsetY":0,"nomeCitta":"Metaponto"},{"codReg":16,"tipoStazione":1,"dettZoomStaz":[{"codiceStazione":"S11136","zoomStartRange":8,"zoomStopRange":9,"pinpointVisibile":true,"pinpointVisible":true,"labelVisibile":true,"labelVisible":true,"codiceRegione":null},{"codiceStazione":"S11136","zoomStartRange":10,"zoomStopRange":11,"pinpointVisibile":true,"pinpointVisible":true,"labelVisibile":true,"labelVisible":true,"codiceRegione":null}],"pstaz":[],"mappaCitta":{"urlImagePinpoint":"","urlImageBaloon":""},"codiceStazione":"S11136","codStazione":"S11136","lat":40.634339,"lon":17.938978,"latMappaCitta":0.0,"lonMappaCitta":0.0,"localita":{"nomeLungo":"BRINDISI","nomeBreve":"Brindisi","label":"Brindisi","id":"S11136"},"esterno":false,"offsetX":45,"offsetY":0,"nomeCitta":"Brindisi"},{"codReg":16,"tipoStazione":3,"dettZoomStaz":[],"pstaz":[],"mappaCitta":{"urlImagePinpoint":"","urlImageBaloon":""},"codiceStazione":"S11131","codStazione":"S11131","lat":40.816652,"lon":17.456899,"latMappaCitta":0.0,"lonMappaCitta":0.0,"localita":{"nomeLungo":"CISTERNINO","nomeBreve":"Cisternino","label":"","id":"S11131"},"esterno":false,"offsetX":0,"offsetY":0,"nomeCitta":"A"},{"codReg":16,"tipoStazione":3,"dettZoomStaz":[],"pstaz":[],"mappaCitta":{"urlImagePinpoint":"","urlImageBaloon":""},"codiceStazione":"S11056","codStazione":"S11056","lat":41.61296,"lon":15.895572,"latMappaCitta":0.0,"lonMappaCitta":0.0,"localita":{"nomeLungo":"SIPONTO","nomeBreve":"Siponto","label":"","id":"S11056"},"esterno":false,"offsetX":0,"offsetY":0,"nomeCitta":"A"},{"codReg":16,"tipoStazione":3,"dettZoomStaz":[{"codiceStazione":"S11304","zoomStartRange":8,"zoomStopRange":9,"pinpointVisibile":true,"pinpointVisible":true,"labelVisibile":true,"labelVisible":true,"codiceRegione":null},{"codiceStazione":"S11304","zoomStartRange":10,"zoomStopRange":11,"pinpointVisibile":true,"pinpointVisible":true,"labelVisibile":true,"labelVisible":true,"codiceRegione":null}],"pstaz":[],"mappaCitta":{"urlImagePinpoint":"","urlImageBaloon":""},"codiceStazione":"S11304","codStazione":"S11304","lat":40.953396,"lon":16.087173,"latMappaCitta":0.0,"lonMappaCitta":0.0,"localita":{"nomeLungo":"SPINAZZOLA","nomeBreve":"Spinazzola","label":"","id":"S11304"},"esterno":false,"offsetX":-4,"offsetY":18,"nomeCitta":"Spinazzola"},{"codReg":16,"tipoStazione":1,"dettZoomStaz":[{"codiceStazione":"S11465","zoomStartRange":8,"zoomStopRange":9,"pinpointVisibile":true,"pinpointVisible":true,"labelVisibile":true,"labelVisible":true,"codiceRegione":null},{"codiceStazione":"S11465","zoomStartRange":10,"zoomStopRange":11,"pinpointVisibile":true,"pinpointVisible":true,"labelVisibile":true,"labelVisible":true,"codiceRegione":null}],"pstaz":[],"mappaCitta":{"urlImagePinpoint":"","urlImageBaloon":""},"codiceStazione":"S11465","codStazione":"S11465","lat":40.483727,"lon":17.224059,"latMappaCitta":0.0,"lonMappaCitta":0.0,"localita":{"nomeLungo":"TARANTO","nomeBreve":"Taranto","label":"Taranto","id":"S11465"},"esterno":false,"offsetX":0,"offsetY":0,"nomeCitta":"Taranto"},{"codReg":16,"tipoStazione":4,"dettZoomStaz":[{"codiceStazione":"S11019","zoomStartRange":8,"zoomStopRange":9,"pinpointVisibile":true,"pinpointVisible":true,"labelVisibile":true,"labelVisible":true,"codiceRegione":null},{"codiceStazione":"S11019","zoomStartRange":10,"zoomStopRange":11,"pinpointVisibile":true,"pinpointVisible":true,"labelVisibile":true,"labelVisible":true,"codiceRegione":null}],"pstaz":[],"mappaCitta":{"urlImagePinpoint":"","urlImageBaloon":""},"codiceStazione":"S11019","codStazione":"S11019","lat":42.000623,"lon":14.992805,"latMappaCitta":0.0,"lonMappaCitta":0.0,"localita":{"nomeLungo":"TERMOLI","nomeBreve":"Termoli","label":"","id":"S11019"},"esterno":true,"offsetX":-4,"offsetY":18,"nomeCitta":"Termoli"},{"codReg":16,"tipoStazione":3,"dettZoomStaz":[{"codiceStazione":"S11505","zoomStartRange":8,"zoomStopRange":9,"pinpointVisibile":true,"pinpointVisible":true,"labelVisibile":true,"labelVisible":true,"codiceRegione":null},{"codiceStazione":"S11505","zoomStartRange":10,"zoomStopRange":11,"pinpointVisibile":true,"pinpointVisible":true,"labelVisibile":true,"labelVisible":true,"codiceRegione":null}],"pstaz":[],"mappaCitta":{"urlImagePinpoint":"","urlImageBaloon":""},"codiceStazione":"S11505","codStazione":"S11505","lat":40.796983,"lon":16.916569,"latMappaCitta":0.0,"lonMappaCitta":0.0,"localita":{"nomeLungo":"GIOIA DEL COLLE","nomeBreve":"Gioia del Colle","label":"","id":"S11505"},"esterno":false,"offsetX":-4,"offsetY":10,"nomeCitta":"Gioia del Colle"},{"codReg":16,"tipoStazione":3,"dettZoomStaz":[],"pstaz":[],"mappaCitta":{"urlImagePinpoint":"","urlImageBaloon":""},"codiceStazione":"S11101","codStazione":"S11101","lat":41.408174,"lon":15.650728,"latMappaCitta":0.0,"lonMappaCitta":0.0,"localita":{"nomeLungo":"INCORONATA","nomeBreve":"Incoronata","label":"","id":"S11101"},"esterno":false,"offsetX":0,"offsetY":0,"nomeCitta":"A"},{"codReg":16,"tipoStazione":3,"dettZoomStaz":[],"pstaz":[],"mappaCitta":{"urlImagePinpoint":"","urlImageBaloon":""},"codiceStazione":"S11606","codStazione":"S11606","lat":40.558074,"lon":17.717629,"latMappaCitta":0.0,"lonMappaCitta":0.0,"localita":{"nomeLungo":"LATIANO","nomeBreve":"Latiano","label":"","id":"S11606"},"esterno":false,"offsetX":0,"offsetY":0,"nomeCitta":"A"},{"codReg":16,"tipoStazione":1,"dettZoomStaz":[{"codiceStazione":"S11145","zoomStartRange":8,"zoomStopRange":9,"pinpointVisibile":true,"pinpointVisible":true,"labelVisibile":true,"labelVisible":true,"codiceRegione":null},{"codiceStazione":"S11145","zoomStartRange":10,"zoomStopRange":11,"pinpointVisibile":true,"pinpointVisible":true,"labelVisibile":true,"labelVisible":true,"codiceRegione":null}],"pstaz":[],"mappaCitta":{"urlImagePinpoint":"","urlImageBaloon":""},"codiceStazione":"S11145","codStazione":"S11145","lat":40.34566,"lon":18.165724,"latMappaCitta":0.0,"lonMappaCitta":0.0,"localita":{"nomeLungo":"LECCE","nomeBreve":"Lecce","label":"Lecce","id":"S11145"},"esterno":false,"offsetX":0,"offsetY":0,"nomeCitta":"Lecce"},{"codReg":16,"tipoStazione":3,"dettZoomStaz":[{"codiceStazione":"S11108","zoomStartRange":8,"zoomStopRange":9,"pinpointVisibile":true,"pinpointVisible":true,"labelVisibile":true,"labelVisible":true,"codiceRegione":null},{"codiceStazione":"S11108","zoomStartRange":10,"zoomStopRange":11,"pinpointVisibile":true,"pinpointVisible":true,"labelVisibile":true,"labelVisible":true,"codiceRegione":null}],"pstaz":[],"mappaCitta":{"urlImagePinpoint":"","urlImageBaloon":""},"codiceStazione":"S11108","codStazione":"S11108","lat":41.315227,"lon":16.278867,"latMappaCitta":0.0,"lonMappaCitta":0.0,"localita":{"nomeLungo":"BARLETTA","nomeBreve":"Barletta","label":"","id":"S11108"},"esterno":false,"offsetX":45,"offsetY":0,"nomeCitta":"Barletta"},{"codReg":16,"tipoStazione":3,"dettZoomStaz":[],"pstaz":[],"mappaCitta":{"urlImagePinpoint":"","urlImageBaloon":""},"codiceStazione":"S11512","codStazione":"S11512","lat":40.517077,"lon":17.176892,"latMappaCitta":0.0,"lonMappaCitta":0.0,"localita":{"nomeLungo":"BELLAVISTA","nomeBreve":"Bellavista","label":"","id":"S11512"},"esterno":false,"offsetX":0,"offsetY":0,"nomeCitta":"A"},{"codReg":16,"tipoStazione":3,"dettZoomStaz":[],"pstaz":[],"mappaCitta":{"urlImagePinpoint":"","urlImageBaloon":""},"codiceStazione":"S11141","codStazione":"S11141","lat":40.48902,"lon":18.000716,"latMappaCitta":0.0,"lonMappaCitta":0.0,"localita":{"nomeLungo":"S. PIETRO VERNOTICO","nomeBreve":"S.Pietro V.co","label":"","id":"S11141"},"esterno":false,"offsetX":0,"offsetY":0,"nomeCitta":"A"},{"codReg":16,"tipoStazione":3,"dettZoomStaz":[{"codiceStazione":"S11025","zoomStartRange":8,"zoomStopRange":9,"pinpointVisibile":true,"pinpointVisible":true,"labelVisibile":true,"labelVisible":true,"codiceRegione":null},{"codiceStazione":"S11025","zoomStartRange":10,"zoomStopRange":11,"pinpointVisibile":true,"pinpointVisible":true,"labelVisibile":true,"labelVisible":true,"codiceRegione":null}],"pstaz":[],"mappaCitta":{"urlImagePinpoint":"","urlImageBaloon":""},"codiceStazione":"S11025","codStazione":"S11025","lat":41.684512,"lon":15.392567,"latMappaCitta":0.0,"lonMappaCitta":0.0,"localita":{"nomeLungo":"SAN SEVERO","nomeBreve":"San Severo","label":"","id":"S11025"},"esterno":false,"offsetX":-4,"offsetY":10,"nomeCitta":"San Severo"},{"codReg":16,"tipoStazione":3,"dettZoomStaz":[],"pstaz":[],"mappaCitta":{"urlImagePinpoint":"","urlImageBaloon":""},"codiceStazione":"S11503","codStazione":"S11503","lat":40.958821,"lon":16.753771,"latMappaCitta":0.0,"lonMappaCitta":0.0,"localita":{"nomeLungo":"SANNICANDRO DI BARI","nomeBreve":"Sannicandro","label":"","id":"S11503"},"esterno":false,"offsetX":0,"offsetY":0,"nomeCitta":"A"},{"codReg":16,"tipoStazione":3,"dettZoomStaz":[],"pstaz":[],"mappaCitta":{"urlImagePinpoint":"","urlImageBaloon":""},"codiceStazione":"S11201","codStazione":"S11201","lat":41.370726,"lon":15.605748,"latMappaCitta":0.0,"lonMappaCitta":0.0,"localita":{"nomeLungo":"SANTUARIO INCORONATA","nomeBreve":"Santuario Incor.","label":"","id":"S11201"},"esterno":false,"offsetX":0,"offsetY":0,"nomeCitta":"A"},{"codReg":16,"tipoStazione":3,"dettZoomStaz":[],"pstaz":[],"mappaCitta":{"urlImagePinpoint":"","urlImageBaloon":""},"codiceStazione":"S11310","codStazione":"S11310","lat":40.8026,"lon":16.76403,"latMappaCitta":0.0,"lonMappaCitta":0.0,"localita":{"nomeLungo":"SANTERAMO","nomeBreve":"Santeramo","label":"","id":"S11310"},"esterno":false,"offsetX":0,"offsetY":0,"nomeCitta":"A"},{"codReg":16,"tipoStazione":3,"dettZoomStaz":[],"pstaz":[],"mappaCitta":{"urlImagePinpoint":"","urlImageBaloon":""},"codiceStazione":"S11022","codStazione":"S11022","lat":41.895706,"lon":15.27507,"latMappaCitta":0.0,"lonMappaCitta":0.0,"localita":{"nomeLungo":"POSTO MOVIMENTO RIPALTA","nomeBreve":"PM Ripalta","label":"","id":"S11022"},"esterno":false,"offsetX":0,"offsetY":0,"nomeCitta":"A"},{"codReg":16,"tipoStazione":3,"dettZoomStaz":[],"pstaz":[],"mappaCitta":{"urlImagePinpoint":"","urlImageBaloon":""},"codiceStazione":"S11515","codStazione":"S11515","lat":41.086437,"lon":16.779596,"latMappaCitta":0.0,"lonMappaCitta":0.0,"localita":{"nomeLungo":"MODUGNO CITTA`","nomeBreve":"Modugno Citta'","label":"","id":"S11515"},"esterno":false,"offsetX":0,"offsetY":0,"nomeCitta":"A"},{"codReg":16,"tipoStazione":3,"dettZoomStaz":[],"pstaz":[],"mappaCitta":{"urlImagePinpoint":"","urlImageBaloon":""},"codiceStazione":"S11114","codStazione":"S11114","lat":41.196008,"lon":16.596793,"latMappaCitta":0.0,"lonMappaCitta":0.0,"localita":{"nomeLungo":"MOLFETTA","nomeBreve":"Molfetta","label":"","id":"S11114"},"esterno":false,"offsetX":0,"offsetY":0,"nomeCitta":"A"},{"codReg":16,"tipoStazione":3,"dettZoomStaz":[],"pstaz":[],"mappaCitta":{"urlImagePinpoint":"","urlImageBaloon":""},"codiceStazione":"S11129","codStazione":"S11129","lat":40.952017,"lon":17.292455,"latMappaCitta":0.0,"lonMappaCitta":0.0,"localita":{"nomeLungo":"MONOPOLI","nomeBreve":"Monopoli","label":"","id":"S11129"},"esterno":false,"offsetX":0,"offsetY":0,"nomeCitta":"A"},{"codReg":16,"tipoStazione":3,"dettZoomStaz":[],"pstaz":[],"mappaCitta":{"urlImagePinpoint":"","urlImageBaloon":""},"codiceStazione":"S11605","codStazione":"S11605","lat":40.508167,"lon":17.646534,"latMappaCitta":0.0,"lonMappaCitta":0.0,"localita":{"nomeLungo":"ORIA","nomeBreve":"Oria","label":"","id":"S11605"},"esterno":false,"offsetX":0,"offsetY":0,"nomeCitta":"A"},{"codReg":16,"tipoStazione":4,"dettZoomStaz":[{"codiceStazione":"S09320","zoomStartRange":8,"zoomStopRange":9,"pinpointVisibile":true,"pinpointVisible":true,"labelVisibile":true,"labelVisible":true,"codiceRegione":null},{"codiceStazione":"S09320","zoomStartRange":10,"zoomStopRange":11,"pinpointVisibile":true,"pinpointVisible":true,"labelVisibile":true,"labelVisible":true,"codiceRegione":null}],"pstaz":[],"mappaCitta":{"urlImagePinpoint":"","urlImageBaloon":""},"codiceStazione":"S09320","codStazione":"S09320","lat":41.241899,"lon":15.27766,"latMappaCitta":0.0,"lonMappaCitta":0.0,"localita":{"nomeLungo":"ORSARA DI PUGLIA","nomeBreve":"Orsara di Puglia","label":"","id":"S09320"},"esterno":false,"offsetX":93,"offsetY":20,"nomeCitta":"Orsara di Puglia"},{"codReg":16,"tipoStazione":3,"dettZoomStaz":[],"pstaz":[],"mappaCitta":{"urlImagePinpoint":"","urlImageBaloon":""},"codiceStazione":"S11102","codStazione":"S11102","lat":41.350441,"lon":15.732059,"latMappaCitta":0.0,"lonMappaCitta":0.0,"localita":{"nomeLungo":"ORTANOVA","nomeBreve":"Ortanova","label":"","id":"S11102"},"esterno":false,"offsetX":0,"offsetY":0,"nomeCitta":"A"},{"codReg":16,"tipoStazione":3,"dettZoomStaz":[],"pstaz":[],"mappaCitta":{"urlImagePinpoint":"","urlImageBaloon":""},"codiceStazione":"S11132","codStazione":"S11132","lat":40.752356,"lon":17.580809,"latMappaCitta":0.0,"lonMappaCitta":0.0,"localita":{"nomeLungo":"OSTUNI","nomeBreve":"Ostuni","label":"","id":"S11132"},"esterno":false,"offsetX":0,"offsetY":0,"nomeCitta":"A"},{"codReg":16,"tipoStazione":3,"dettZoomStaz":[],"pstaz":[],"mappaCitta":{"urlImagePinpoint":"","urlImageBaloon":""},"codiceStazione":"S11508","codStazione":"S11508","lat":40.610906,"lon":16.975202,"latMappaCitta":0.0,"lonMappaCitta":0.0,"localita":{"nomeLungo":"PALAGIANELLO","nomeBreve":"Palagianello","label":"","id":"S11508"},"esterno":false,"offsetX":0,"offsetY":0,"nomeCitta":"A"},{"codReg":16,"tipoStazione":3,"dettZoomStaz":[],"pstaz":[],"mappaCitta":{"urlImagePinpoint":"","urlImageBaloon":""},"codiceStazione":"S11464","codStazione":"S11464","lat":40.516998,"lon":17.059217,"latMappaCitta":0.0,"lonMappaCitta":0.0,"localita":{"nomeLungo":"PALAGIANO CHIATONA","nomeBreve":"Palagiano Chiat.","label":"","id":"S11464"},"esterno":false,"offsetX":0,"offsetY":0,"nomeCitta":"A"},{"codReg":16,"tipoStazione":3,"dettZoomStaz":[{"codiceStazione":"S11112","zoomStartRange":8,"zoomStopRange":9,"pinpointVisibile":true,"pinpointVisible":true,"labelVisibile":true,"labelVisible":true,"codiceRegione":null},{"codiceStazione":"S11112","zoomStartRange":10,"zoomStopRange":11,"pinpointVisibile":true,"pinpointVisible":true,"labelVisibile":true,"labelVisible":true,"codiceRegione":null}],"pstaz":[],"mappaCitta":{"urlImagePinpoint":"","urlImageBaloon":""},"codiceStazione":"S11112","codStazione":"S11112","lat":41.272693,"lon":16.417646,"latMappaCitta":0.0,"lonMappaCitta":0.0,"localita":{"nomeLungo":"TRANI","nomeBreve":"Trani","label":"","id":"S11112"},"esterno":false,"offsetX":-4,"offsetY":18,"nomeCitta":"Trani"},{"codReg":16,"tipoStazione":3,"dettZoomStaz":[],"pstaz":[],"mappaCitta":{"urlImagePinpoint":"","urlImageBaloon":""},"codiceStazione":"S11143","codStazione":"S11143","lat":40.40964,"lon":18.076902,"latMappaCitta":0.0,"lonMappaCitta":0.0,"localita":{"nomeLungo":"TREPUZZI","nomeBreve":"Trepuzzi","label":"","id":"S11143"},"esterno":false,"offsetX":0,"offsetY":0,"nomeCitta":"A"},{"codReg":16,"tipoStazione":3,"dettZoomStaz":[],"pstaz":[],"mappaCitta":{"urlImagePinpoint":"","urlImageBaloon":""},"codiceStazione":"S11140","codStazione":"S11140","lat":40.550726,"lon":17.979016,"latMappaCitta":0.0,"lonMappaCitta":0.0,"localita":{"nomeLungo":"TUTURANO","nomeBreve":"Tuturano","label":"","id":"S11140"},"esterno":false,"offsetX":0,"offsetY":0,"nomeCitta":"A"},{"codReg":16,"tipoStazione":3,"dettZoomStaz":[],"pstaz":[],"mappaCitta":{"urlImagePinpoint":"","urlImageBaloon":""},"codiceStazione":"S11510","codStazione":"S11510","lat":40.582968,"lon":17.107899,"latMappaCitta":0.0,"lonMappaCitta":0.0,"localita":{"nomeLungo":"MASSAFRA","nomeBreve":"Massafra","label":"","id":"S11510"},"esterno":false,"offsetX":0,"offsetY":0,"nomeCitta":"A"},{"codReg":16,"tipoStazione":3,"dettZoomStaz":[],"pstaz":[],"mappaCitta":{"urlImagePinpoint":"","urlImageBaloon":""},"codiceStazione":"S11607","codStazione":"S11607","lat":40.563203,"lon":17.802082,"latMappaCitta":0.0,"lonMappaCitta":0.0,"localita":{"nomeLungo":"MESAGNE","nomeBreve":"Mesagne","label":"","id":"S11607"},"esterno":false,"offsetX":0,"offsetY":0,"nomeCitta":"A"},{"codReg":16,"tipoStazione":3,"dettZoomStaz":[],"pstaz":[],"mappaCitta":{"urlImagePinpoint":"","urlImageBaloon":""},"codiceStazione":"S11151","codStazione":"S11151","lat":41.017835,"lon":17.159396,"latMappaCitta":0.0,"lonMappaCitta":0.0,"localita":{"nomeLungo":"COZZE","nomeBreve":"Cozze","label":"","id":"S11151"},"esterno":false,"offsetX":0,"offsetY":0,"nomeCitta":"A"},{"codReg":16,"tipoStazione":3,"dettZoomStaz":[],"pstaz":[],"mappaCitta":{"urlImagePinpoint":"","urlImageBaloon":""},"codiceStazione":"S11154","codStazione":"S11154","lat":40.901727,"lon":17.329607,"latMappaCitta":0.0,"lonMappaCitta":0.0,"localita":{"nomeLungo":"EGNAZIA","nomeBreve":"Egnazia","label":"","id":"S11154"},"esterno":false,"offsetX":0,"offsetY":0,"nomeCitta":"A"},{"codReg":16,"tipoStazione":3,"dettZoomStaz":[],"pstaz":[],"mappaCitta":{"urlImagePinpoint":"","urlImageBaloon":""},"codiceStazione":"S11148","codStazione":"S11148","lat":41.123916,"lon":16.837018,"latMappaCitta":0.0,"lonMappaCitta":0.0,"localita":{"nomeLungo":"BARI PARCO NORD","nomeBreve":"Bari Parco Nord","label":"","id":"S11148"},"esterno":false,"offsetX":0,"offsetY":0,"nomeCitta":"A"},{"codReg":16,"tipoStazione":3,"dettZoomStaz":[],"pstaz":[],"mappaCitta":{"urlImagePinpoint":"","urlImageBaloon":""},"codiceStazione":"S11126","codStazione":"S11126","lat":41.082637,"lon":16.995772,"latMappaCitta":0.0,"lonMappaCitta":0.0,"localita":{"nomeLungo":"BARI TORRE A MARE","nomeBreve":"BA Torre a Mare","label":"","id":"S11126"},"esterno":false,"offsetX":0,"offsetY":0,"nomeCitta":"A"},{"codReg":16,"tipoStazione":3,"dettZoomStaz":[],"pstaz":[],"mappaCitta":{"urlImagePinpoint":"","urlImageBaloon":""},"codiceStazione":"S11608","codStazione":"S11608","lat":40.523377,"lon":17.476149,"latMappaCitta":0.0,"lonMappaCitta":0.0,"localita":{"nomeLungo":"VILLA CASTELLI","nomeBreve":"Villa Castelli","label":"","id":"S11608"},"esterno":false,"offsetX":0,"offsetY":0,"nomeCitta":"A"},{"codReg":16,"tipoStazione":3,"dettZoomStaz":[],"pstaz":[],"mappaCitta":{"urlImagePinpoint":"","urlImageBaloon":""},"codiceStazione":"S11128","codStazione":"S11128","lat":40.990926,"lon":17.218676,"latMappaCitta":0.0,"lonMappaCitta":0.0,"localita":{"nomeLungo":"POLIGNANO A MARE","nomeBreve":"Polignano a Mare","label":"","id":"S11128"},"esterno":false,"offsetX":0,"offsetY":0,"nomeCitta":"A"},{"codReg":16,"tipoStazione":3,"dettZoomStaz":[],"pstaz":[],"mappaCitta":{"urlImagePinpoint":"","urlImageBaloon":""},"codiceStazione":"S09325","codStazione":"S09325","lat":41.35148,"lon":15.532976,"latMappaCitta":0.0,"lonMappaCitta":0.0,"localita":{"nomeLungo":"PONTE ALBANITO","nomeBreve":"Ponte Albanito","label":"","id":"S09325"},"esterno":false,"offsetX":0,"offsetY":0,"nomeCitta":"A"},{"codReg":16,"tipoStazione":3,"dettZoomStaz":[],"pstaz":[],"mappaCitta":{"urlImagePinpoint":"","urlImageBaloon":""},"codiceStazione":"S11462","codStazione":"S11462","lat":40.429201,"lon":16.890968,"latMappaCitta":0.0,"lonMappaCitta":0.0,"localita":{"nomeLungo":"GINOSA","nomeBreve":"Ginosa","label":"","id":"S11462"},"esterno":false,"offsetX":0,"offsetY":0,"nomeCitta":"A"},{"codReg":16,"tipoStazione":3,"dettZoomStaz":[],"pstaz":[],"mappaCitta":{"urlImagePinpoint":"","urlImageBaloon":""},"codiceStazione":"S11115","codStazione":"S11115","lat":41.180968,"lon":16.669346,"latMappaCitta":0.0,"lonMappaCitta":0.0,"localita":{"nomeLungo":"GIOVINAZZO","nomeBreve":"Giovinazzo","label":"","id":"S11115"},"esterno":false,"offsetX":0,"offsetY":0,"nomeCitta":"A"},{"codReg":16,"tipoStazione":3,"dettZoomStaz":[],"pstaz":[],"mappaCitta":{"urlImagePinpoint":"","urlImageBaloon":""},"codiceStazione":"S11502","codStazione":"S11502","lat":41.01199,"lon":16.718777,"latMappaCitta":0.0,"lonMappaCitta":0.0,"localita":{"nomeLungo":"GRUMO APPULA","nomeBreve":"Grumo Appula","label":"","id":"S11502"},"esterno":false,"offsetX":0,"offsetY":0,"nomeCitta":"A"},{"codReg":16,"tipoStazione":3,"dettZoomStaz":[],"pstaz":[],"mappaCitta":{"urlImagePinpoint":"","urlImageBaloon":""},"codiceStazione":"S11023","codStazione":"S11023","lat":41.805561,"lon":15.35707,"latMappaCitta":0.0,"lonMappaCitta":0.0,"localita":{"nomeLungo":"POGGIO IMPERIALE","nomeBreve":"Poggio Imperiale","label":"","id":"S11023"},"esterno":false,"offsetX":0,"offsetY":0,"nomeCitta":"A"},{"codReg":16,"tipoStazione":3,"dettZoomStaz":[],"pstaz":[],"mappaCitta":{"urlImagePinpoint":"","urlImageBaloon":""},"codiceStazione":"S11305","codStazione":"S11305","lat":40.935221,"lon":16.266897,"latMappaCitta":0.0,"lonMappaCitta":0.0,"localita":{"nomeLungo":"POGGIORSINI","nomeBreve":"Poggiorsini","label":"","id":"S11305"},"esterno":false,"offsetX":0,"offsetY":0,"nomeCitta":"A"},{"codReg":16,"tipoStazione":3,"dettZoomStaz":[],"pstaz":[],"mappaCitta":{"urlImagePinpoint":"","urlImageBaloon":""},"codiceStazione":"S11125","codStazione":"S11125","lat":41.111822,"lon":16.914736,"latMappaCitta":0.0,"lonMappaCitta":0.0,"localita":{"nomeLungo":"BARI PARCO SUD","nomeBreve":"Bari Parco Sud","label":"","id":"S11125"},"esterno":false,"offsetX":0,"offsetY":0,"nomeCitta":"A"},{"codReg":16,"tipoStazione":3,"dettZoomStaz":[],"pstaz":[],"mappaCitta":{"urlImagePinpoint":"","urlImageBaloon":""},"codiceStazione":"S11127","codStazione":"S11127","lat":41.057227,"lon":17.080919,"latMappaCitta":0.0,"lonMappaCitta":0.0,"localita":{"nomeLungo":"MOLA DI BARI","nomeBreve":"Mola di Bari","label":"","id":"S11127"},"esterno":false,"offsetX":0,"offsetY":0,"nomeCitta":"A"},{"codReg":16,"tipoStazione":3,"dettZoomStaz":[],"pstaz":[],"mappaCitta":{"urlImagePinpoint":"","urlImageBaloon":""},"codiceStazione":"S11600","codStazione":"S11600","lat":40.50791,"lon":17.257802,"latMappaCitta":0.0,"lonMappaCitta":0.0,"localita":{"nomeLungo":"NASISI","nomeBreve":"Nasisi","label":"","id":"S11600"},"esterno":false,"offsetX":0,"offsetY":0,"nomeCitta":"A"},{"codReg":16,"tipoStazione":1,"dettZoomStaz":[{"codiceStazione":"S11100","zoomStartRange":8,"zoomStopRange":9,"pinpointVisibile":true,"pinpointVisible":true,"labelVisibile":true,"labelVisible":true,"codiceRegione":null},{"codiceStazione":"S11100","zoomStartRange":10,"zoomStopRange":11,"pinpointVisibile":true,"pinpointVisible":true,"labelVisibile":true,"labelVisible":true,"codiceRegione":null}],"pstaz":[],"mappaCitta":{"urlImagePinpoint":"","urlImageBaloon":""},"codiceStazione":"S11100","codStazione":"S11100","lat":41.466,"lon":15.555816,"latMappaCitta":0.0,"lonMappaCitta":0.0,"localita":{"nomeLungo":"FOGGIA","nomeBreve":"Foggia","label":"Foggia","id":"S11100"},"esterno":false,"offsetX":48,"offsetY":20,"nomeCitta":"Foggia"}]