[{"codReg":11,"tipoStazione":3,"dettZoomStaz":[],"pstaz":[],"mappaCitta":{"urlImagePinpoint":"","urlImageBaloon":""},"codiceStazione":"S07302","codStazione":"S07302","lat":43.210511,"lon":13.057274,"latMappaCitta":0.0,"lonMappaCitta":0.0,"localita":{"nomeLungo":"CASTELRAIMONDO CAMERINO","nomeBreve":"Castelraimondo","label":"","id":"S07302"},"esterno":false,"offsetX":0,"offsetY":0,"nomeCitta":"A"},{"codReg":11,"tipoStazione":3,"dettZoomStaz":[{"codiceStazione":"S07550","zoomStartRange":9,"zoomStopRange":9,"pinpointVisibile":true,"pinpointVisible":true,"labelVisibile":true,"labelVisible":true,"codiceRegione":null},{"codiceStazione":"S07550","zoomStartRange":10,"zoomStopRange":11,"pinpointVisibile":true,"pinpointVisible":true,"labelVisibile":true,"labelVisible":true,"codiceRegione":null}],"pstaz":[],"mappaCitta":{"urlImagePinpoint":"","urlImageBaloon":""},"codiceStazione":"S07550","codStazione":"S07550","lat":42.855474,"lon":13.587939,"latMappaCitta":0.0,"lonMappaCitta":0.0,"localita":{"nomeLungo":"ASCOLI PICENO","nomeBreve":"Ascoli P.","label":"Ascoli Piceno","id":"S07550"},"esterno":false,"offsetX":78,"offsetY":20,"nomeCitta":"Ascoli Piceno"},{"codReg":11,"tipoStazione":3,"dettZoomStaz":[{"codiceStazione":"S07207","zoomStartRange":9,"zoomStopRange":9,"pinpointVisibile":true,"pinpointVisible":true,"labelVisibile":true,"labelVisible":true,"codiceRegione":null},{"codiceStazione":"S07207","zoomStartRange":10,"zoomStopRange":11,"pinpointVisibile":true,"pinpointVisible":true,"labelVisibile":true,"labelVisible":true,"codiceRegione":null}],"pstaz":[],"mappaCitta":{"urlImagePinpoint":"","urlImageBaloon":""},"codiceStazione":"S07207","codStazione":"S07207","lat":43.345686,"lon":12.986501,"latMappaCitta":0.0,"lonMappaCitta":0.0,"localita":{"nomeLungo":"ALBACINA","nomeBreve":"Albacina","label":"","id":"S07207"},"esterno":false,"offsetX":0,"offsetY":0,"nomeCitta":"Albacina"},{"codReg":11,"tipoStazione":1,"dettZoomStaz":[{"codiceStazione":"S07113","zoomStartRange":9,"zoomStopRange":9,"pinpointVisibile":true,"pinpointVisible":true,"labelVisibile":true,"labelVisible":true,"codiceRegione":null},{"codiceStazione":"S07113","zoomStartRange":10,"zoomStopRange":11,"pinpointVisibile":true,"pinpointVisible":true,"labelVisibile":true,"labelVisible":true,"codiceRegione":null}],"pstaz":[],"mappaCitta":{"urlImagePinpoint":"","urlImageBaloon":""},"codiceStazione":"S07113","codStazione":"S07113","lat":43.607734,"lon":13.497665,"latMappaCitta":0.0,"lonMappaCitta":0.0,"localita":{"nomeLungo":"ANCONA","nomeBreve":"Ancona","label":"Ancona","id":"S07113"},"esterno":false,"offsetX":0,"offsetY":0,"nomeCitta":"Ancona"},{"codReg":11,"tipoStazione":3,"dettZoomStaz":[],"pstaz":[],"mappaCitta":{"urlImagePinpoint":"","urlImageBaloon":""},"codiceStazione":"S07116","codStazione":"S07116","lat":43.619445,"lon":13.50911,"latMappaCitta":0.0,"lonMappaCitta":0.0,"localita":{"nomeLungo":"ANCONA MARITTIMA","nomeBreve":"Ancona Mar.","label":"","id":"S07116"},"esterno":false,"offsetX":0,"offsetY":0,"nomeCitta":"A"},{"codReg":11,"tipoStazione":3,"dettZoomStaz":[],"pstaz":[],"mappaCitta":{"urlImagePinpoint":"","urlImageBaloon":""},"codiceStazione":"S07059","codStazione":"S07059","lat":43.345598,"lon":12.873939,"latMappaCitta":0.0,"lonMappaCitta":0.0,"localita":{"nomeLungo":"FABRIANO CA` MAIANO","nomeBreve":"Fabriano Ca' M.","label":"","id":"S07059"},"esterno":false,"offsetX":0,"offsetY":0,"nomeCitta":"A"},{"codReg":11,"tipoStazione":3,"dettZoomStaz":[],"pstaz":[],"mappaCitta":{"urlImagePinpoint":"","urlImageBaloon":""},"codiceStazione":"S07556","codStazione":"S07556","lat":42.844346,"lon":13.632995,"latMappaCitta":0.0,"lonMappaCitta":0.0,"localita":{"nomeLungo":"MARINO DEL TRONTO FOLIGNANO","nomeBreve":"Marino del Tr.","label":"","id":"S07556"},"esterno":false,"offsetX":0,"offsetY":0,"nomeCitta":"A"},{"codReg":11,"tipoStazione":4,"dettZoomStaz":[{"codiceStazione":"F00021","zoomStartRange":6,"zoomStopRange":11,"pinpointVisibile":false,"pinpointVisible":false,"labelVisibile":false,"labelVisible":false,"codiceRegione":null}],"pstaz":[],"mappaCitta":{"urlImagePinpoint":"","urlImageBaloon":""},"codiceStazione":"F00021","codStazione":"F00021","lat":42.627896,"lon":13.989716,"latMappaCitta":0.0,"lonMappaCitta":0.0,"localita":{"nomeLungo":"F00021","nomeBreve":"F00021","label":"","id":"F00021"},"esterno":false,"offsetX":0,"offsetY":0,"nomeCitta":"F00021"},{"codReg":11,"tipoStazione":4,"dettZoomStaz":[{"codiceStazione":"F00041","zoomStartRange":6,"zoomStopRange":11,"pinpointVisibile":false,"pinpointVisible":false,"labelVisibile":false,"labelVisible":false,"codiceRegione":null}],"pstaz":[],"mappaCitta":{"urlImagePinpoint":"","urlImageBaloon":""},"codiceStazione":"F00041","codStazione":"F00041","lat":43.600284,"lon":13.4198,"latMappaCitta":0.0,"lonMappaCitta":0.0,"localita":{"nomeLungo":"F00041","nomeBreve":"F00041","label":"","id":"F00041"},"esterno":false,"offsetX":0,"offsetY":0,"nomeCitta":"F00041"},{"codReg":11,"tipoStazione":4,"dettZoomStaz":[{"codiceStazione":"F00040","zoomStartRange":6,"zoomStopRange":11,"pinpointVisibile":false,"pinpointVisible":false,"labelVisibile":false,"labelVisible":false,"codiceRegione":null}],"pstaz":[],"mappaCitta":{"urlImagePinpoint":"","urlImageBaloon":""},"codiceStazione":"F00040","codStazione":"F00040","lat":43.733399,"lon":13.139648,"latMappaCitta":0.0,"lonMappaCitta":0.0,"localita":{"nomeLungo":"F00040","nomeBreve":"F00040","label":"","id":"F00040"},"esterno":false,"offsetX":0,"offsetY":0,"nomeCitta":"F00040"},{"codReg":11,"tipoStazione":3,"dettZoomStaz":[],"pstaz":[],"mappaCitta":{"urlImagePinpoint":"","urlImageBaloon":""},"codiceStazione":"S07061","codStazione":"S07061","lat":43.520379,"lon":12.823977,"latMappaCitta":0.0,"lonMappaCitta":0.0,"localita":{"nomeLungo":"BELLISIO SOLFARE","nomeBreve":"Bellisio Solfare","label":"","id":"S07061"},"esterno":false,"offsetX":0,"offsetY":0,"nomeCitta":"A"},{"codReg":11,"tipoStazione":3,"dettZoomStaz":[],"pstaz":[],"mappaCitta":{"urlImagePinpoint":"","urlImageBaloon":""},"codiceStazione":"S07065","codStazione":"S07065","lat":43.345046,"lon":12.858866,"latMappaCitta":0.0,"lonMappaCitta":0.0,"localita":{"nomeLungo":"MELANO MARISCHIO","nomeBreve":"Melano Marischio","label":"","id":"S07065"},"esterno":false,"offsetX":0,"offsetY":0,"nomeCitta":"A"},{"codReg":11,"tipoStazione":3,"dettZoomStaz":[],"pstaz":[],"mappaCitta":{"urlImagePinpoint":"","urlImageBaloon":""},"codiceStazione":"S07108","codStazione":"S07108","lat":43.716277,"lon":13.221652,"latMappaCitta":0.0,"lonMappaCitta":0.0,"localita":{"nomeLungo":"SENIGALLIA","nomeBreve":"Senigallia","label":"","id":"S07108"},"esterno":false,"offsetX":0,"offsetY":0,"nomeCitta":"A"},{"codReg":11,"tipoStazione":3,"dettZoomStaz":[{"codiceStazione":"S07111","zoomStartRange":9,"zoomStopRange":9,"pinpointVisibile":true,"pinpointVisible":true,"labelVisibile":true,"labelVisible":true,"codiceRegione":null},{"codiceStazione":"S07111","zoomStartRange":10,"zoomStopRange":11,"pinpointVisibile":true,"pinpointVisible":true,"labelVisibile":true,"labelVisible":true,"codiceRegione":null}],"pstaz":[],"mappaCitta":{"urlImagePinpoint":"","urlImageBaloon":""},"codiceStazione":"S07111","codStazione":"S07111","lat":43.630577,"lon":13.397378,"latMappaCitta":0.0,"lonMappaCitta":0.0,"localita":{"nomeLungo":"FALCONARA MARITTIMA","nomeBreve":"Falconara M.","label":"","id":"S07111"},"esterno":false,"offsetX":-4,"offsetY":18,"nomeCitta":"Falconara Marittima"},{"codReg":11,"tipoStazione":3,"dettZoomStaz":[],"pstaz":[],"mappaCitta":{"urlImagePinpoint":"","urlImageBaloon":""},"codiceStazione":"S07201","codStazione":"S07201","lat":43.595503,"lon":13.327655,"latMappaCitta":0.0,"lonMappaCitta":0.0,"localita":{"nomeLungo":"CHIARAVALLE","nomeBreve":"Chiaravalle","label":"","id":"S07201"},"esterno":false,"offsetX":0,"offsetY":0,"nomeCitta":"A"},{"codReg":11,"tipoStazione":3,"dettZoomStaz":[],"pstaz":[],"mappaCitta":{"urlImagePinpoint":"","urlImageBaloon":""},"codiceStazione":"S07203","codStazione":"S07203","lat":43.500005,"lon":13.1481,"latMappaCitta":0.0,"lonMappaCitta":0.0,"localita":{"nomeLungo":"MONTECAROTTO CASTELBELLINO","nomeBreve":"Montecarotto C.","label":"","id":"S07203"},"esterno":false,"offsetX":0,"offsetY":0,"nomeCitta":"A"},{"codReg":11,"tipoStazione":3,"dettZoomStaz":[],"pstaz":[],"mappaCitta":{"urlImagePinpoint":"","urlImageBaloon":""},"codiceStazione":"S07204","codStazione":"S07204","lat":43.481403,"lon":13.084733,"latMappaCitta":0.0,"lonMappaCitta":0.0,"localita":{"nomeLungo":"CASTELPLANIO CUPRAMONTANA","nomeBreve":"Castelplanio C.","label":"","id":"S07204"},"esterno":false,"offsetX":0,"offsetY":0,"nomeCitta":"A"},{"codReg":11,"tipoStazione":3,"dettZoomStaz":[],"pstaz":[],"mappaCitta":{"urlImagePinpoint":"","urlImageBaloon":""},"codiceStazione":"S07206","codStazione":"S07206","lat":43.403011,"lon":12.977163,"latMappaCitta":0.0,"lonMappaCitta":0.0,"localita":{"nomeLungo":"GENGA S.VITTORE TERME","nomeBreve":"Genga S.V.T.","label":"","id":"S07206"},"esterno":false,"offsetX":0,"offsetY":0,"nomeCitta":"A"},{"codReg":11,"tipoStazione":3,"dettZoomStaz":[],"pstaz":[],"mappaCitta":{"urlImagePinpoint":"","urlImageBaloon":""},"codiceStazione":"S07303","codStazione":"S07303","lat":43.22996,"lon":13.183491,"latMappaCitta":0.0,"lonMappaCitta":0.0,"localita":{"nomeLungo":"S.SEVERINO MARCHE","nomeBreve":"S.Severino M.","label":"","id":"S07303"},"esterno":false,"offsetX":0,"offsetY":0,"nomeCitta":"A"},{"codReg":11,"tipoStazione":3,"dettZoomStaz":[],"pstaz":[],"mappaCitta":{"urlImagePinpoint":"","urlImageBaloon":""},"codiceStazione":"S07304","codStazione":"S07304","lat":43.214556,"lon":13.290501,"latMappaCitta":0.0,"lonMappaCitta":0.0,"localita":{"nomeLungo":"TOLENTINO","nomeBreve":"Tolentino","label":"","id":"S07304"},"esterno":false,"offsetX":0,"offsetY":0,"nomeCitta":"A"},{"codReg":11,"tipoStazione":3,"dettZoomStaz":[],"pstaz":[],"mappaCitta":{"urlImagePinpoint":"","urlImageBaloon":""},"codiceStazione":"S07308","codStazione":"S07308","lat":43.281616,"lon":13.477697,"latMappaCitta":0.0,"lonMappaCitta":0.0,"localita":{"nomeLungo":"CORRIDONIA MOGLIANO","nomeBreve":"Corridonia M.","label":"","id":"S07308"},"esterno":false,"offsetX":0,"offsetY":0,"nomeCitta":"A"},{"codReg":11,"tipoStazione":3,"dettZoomStaz":[],"pstaz":[],"mappaCitta":{"urlImagePinpoint":"","urlImageBaloon":""},"codiceStazione":"S07310","codStazione":"S07310","lat":43.289297,"lon":13.646378,"latMappaCitta":0.0,"lonMappaCitta":0.0,"localita":{"nomeLungo":"MONTECOSARO","nomeBreve":"Montecosaro","label":"","id":"S07310"},"esterno":false,"offsetX":0,"offsetY":0,"nomeCitta":"A"},{"codReg":11,"tipoStazione":3,"dettZoomStaz":[],"pstaz":[],"mappaCitta":{"urlImagePinpoint":"","urlImageBaloon":""},"codiceStazione":"S07311","codStazione":"S07311","lat":43.220298,"lon":13.07522,"latMappaCitta":0.0,"lonMappaCitta":0.0,"localita":{"nomeLungo":"GAGLIOLE","nomeBreve":"Gagliole","label":"","id":"S07311"},"esterno":false,"offsetX":0,"offsetY":0,"nomeCitta":"A"},{"codReg":11,"tipoStazione":3,"dettZoomStaz":[{"codiceStazione":"S07506","zoomStartRange":9,"zoomStopRange":9,"pinpointVisibile":true,"pinpointVisible":true,"labelVisibile":true,"labelVisible":true,"codiceRegione":null},{"codiceStazione":"S07506","zoomStartRange":10,"zoomStopRange":11,"pinpointVisibile":true,"pinpointVisible":true,"labelVisibile":true,"labelVisible":true,"codiceRegione":null}],"pstaz":[],"mappaCitta":{"urlImagePinpoint":"","urlImageBaloon":""},"codiceStazione":"S07506","codStazione":"S07506","lat":43.3091,"lon":13.7257,"latMappaCitta":0.0,"lonMappaCitta":0.0,"localita":{"nomeLungo":"CIVITANOVA MARCHE","nomeBreve":"Civitanova","label":"","id":"S07506"},"esterno":false,"offsetX":0,"offsetY":0,"nomeCitta":"Civitanova"},{"codReg":11,"tipoStazione":3,"dettZoomStaz":[],"pstaz":[],"mappaCitta":{"urlImagePinpoint":"","urlImageBaloon":""},"codiceStazione":"S07507","codStazione":"S07507","lat":43.256855,"lon":13.760749,"latMappaCitta":0.0,"lonMappaCitta":0.0,"localita":{"nomeLungo":"PORTO S. ELPIDIO","nomeBreve":"Porto S.Elpidio","label":"","id":"S07507"},"esterno":false,"offsetX":0,"offsetY":0,"nomeCitta":"A"},{"codReg":11,"tipoStazione":3,"dettZoomStaz":[],"pstaz":[],"mappaCitta":{"urlImagePinpoint":"","urlImageBaloon":""},"codiceStazione":"S07513","codStazione":"S07513","lat":42.954386,"lon":13.882297,"latMappaCitta":0.0,"lonMappaCitta":0.0,"localita":{"nomeLungo":"S.BENEDETTO DEL TRONTO","nomeBreve":"S.Benedetto T.","label":"","id":"S07513"},"esterno":false,"offsetX":0,"offsetY":0,"nomeCitta":"A"},{"codReg":11,"tipoStazione":3,"dettZoomStaz":[],"pstaz":[],"mappaCitta":{"urlImagePinpoint":"","urlImageBaloon":""},"codiceStazione":"S07553","codStazione":"S07553","lat":42.881488,"lon":13.803569,"latMappaCitta":0.0,"lonMappaCitta":0.0,"localita":{"nomeLungo":"MONSAMPOLO DEL TRONTO","nomeBreve":"Monsampolo","label":"","id":"S07553"},"esterno":false,"offsetX":0,"offsetY":0,"nomeCitta":"A"},{"codReg":11,"tipoStazione":3,"dettZoomStaz":[],"pstaz":[],"mappaCitta":{"urlImagePinpoint":"","urlImageBaloon":""},"codiceStazione":"S07557","codStazione":"S07557","lat":42.849787,"lon":13.599949,"latMappaCitta":0.0,"lonMappaCitta":0.0,"localita":{"nomeLungo":"S.FILIPPO","nomeBreve":"S.Filippo","label":"","id":"S07557"},"esterno":false,"offsetX":0,"offsetY":0,"nomeCitta":"A"},{"codReg":11,"tipoStazione":3,"dettZoomStaz":[],"pstaz":[],"mappaCitta":{"urlImagePinpoint":"","urlImageBaloon":""},"codiceStazione":"S07306","codStazione":"S07306","lat":43.25746,"lon":13.416932,"latMappaCitta":0.0,"lonMappaCitta":0.0,"localita":{"nomeLungo":"URBISAGLIA SFORZACOSTA","nomeBreve":"Urbisaglia S.","label":"","id":"S07306"},"esterno":false,"offsetX":0,"offsetY":0,"nomeCitta":"A"},{"codReg":11,"tipoStazione":3,"dettZoomStaz":[],"pstaz":[],"mappaCitta":{"urlImagePinpoint":"","urlImageBaloon":""},"codiceStazione":"S07117","codStazione":"S07117","lat":43.626158,"lon":13.381179,"latMappaCitta":0.0,"lonMappaCitta":0.0,"localita":{"nomeLungo":"FALCONARA STADIO","nomeBreve":"Falconara Stadio","label":"","id":"S07117"},"esterno":false,"offsetX":0,"offsetY":0,"nomeCitta":"A"},{"codReg":11,"tipoStazione":3,"dettZoomStaz":[],"pstaz":[],"mappaCitta":{"urlImagePinpoint":"","urlImageBaloon":""},"codiceStazione":"S07300","codStazione":"S07300","lat":43.32205,"lon":12.98319,"latMappaCitta":0.0,"lonMappaCitta":0.0,"localita":{"nomeLungo":"CERRETO D`ESI","nomeBreve":"Cerreto d'Esi","label":"","id":"S07300"},"esterno":false,"offsetX":0,"offsetY":0,"nomeCitta":"A"},{"codReg":11,"tipoStazione":3,"dettZoomStaz":[],"pstaz":[],"mappaCitta":{"urlImagePinpoint":"","urlImageBaloon":""},"codiceStazione":"S07015","codStazione":"S07015","lat":43.609936,"lon":13.455777,"latMappaCitta":0.0,"lonMappaCitta":0.0,"localita":{"nomeLungo":"ANCONA TORRETTE","nomeBreve":"Ancona Torrette","label":"","id":"S07015"},"esterno":false,"offsetX":0,"offsetY":0,"nomeCitta":"A"},{"codReg":11,"tipoStazione":3,"dettZoomStaz":[],"pstaz":[],"mappaCitta":{"urlImagePinpoint":"","urlImageBaloon":""},"codiceStazione":"S07313","codStazione":"S07313","lat":43.291569,"lon":13.44048,"latMappaCitta":0.0,"lonMappaCitta":0.0,"localita":{"nomeLungo":"MACERATA FONTESCODELLA","nomeBreve":"Macerata Fontesc","label":"","id":"S07313"},"esterno":false,"offsetX":0,"offsetY":0,"nomeCitta":"A"},{"codReg":11,"tipoStazione":3,"dettZoomStaz":[],"pstaz":[],"mappaCitta":{"urlImagePinpoint":"","urlImageBaloon":""},"codiceStazione":"S07200","codStazione":"S07200","lat":43.607303,"lon":13.357519,"latMappaCitta":0.0,"lonMappaCitta":0.0,"localita":{"nomeLungo":"CASTELFERRETTI","nomeBreve":"Castelferretti","label":"","id":"S07200"},"esterno":false,"offsetX":0,"offsetY":0,"nomeCitta":"A"},{"codReg":11,"tipoStazione":3,"dettZoomStaz":[],"pstaz":[],"mappaCitta":{"urlImagePinpoint":"","urlImageBaloon":""},"codiceStazione":"S07305","codStazione":"S07305","lat":43.240933,"lon":13.367031,"latMappaCitta":0.0,"lonMappaCitta":0.0,"localita":{"nomeLungo":"POLLENZA","nomeBreve":"Pollenza","label":"","id":"S07305"},"esterno":false,"offsetX":0,"offsetY":0,"nomeCitta":"A"},{"codReg":11,"tipoStazione":4,"dettZoomStaz":[{"codiceStazione":"S07514","zoomStartRange":9,"zoomStopRange":9,"pinpointVisibile":true,"pinpointVisible":true,"labelVisibile":true,"labelVisible":true,"codiceRegione":null},{"codiceStazione":"S07514","zoomStartRange":10,"zoomStopRange":11,"pinpointVisibile":true,"pinpointVisible":true,"labelVisibile":true,"labelVisible":true,"codiceRegione":null}],"pstaz":[],"mappaCitta":{"urlImagePinpoint":"","urlImageBaloon":""},"codiceStazione":"S07514","codStazione":"S07514","lat":42.912792,"lon":13.896813,"latMappaCitta":0.0,"lonMappaCitta":0.0,"localita":{"nomeLungo":"PORTO D`ASCOLI","nomeBreve":"PORTO D'ASCOLI","label":"","id":"S07514"},"esterno":false,"offsetX":0,"offsetY":0,"nomeCitta":"Porto d`Ascoli"},{"codReg":11,"tipoStazione":3,"dettZoomStaz":[],"pstaz":[],"mappaCitta":{"urlImagePinpoint":"","urlImageBaloon":""},"codiceStazione":"S07504","codStazione":"S07504","lat":43.433726,"lon":13.661464,"latMappaCitta":0.0,"lonMappaCitta":0.0,"localita":{"nomeLungo":"PORTO RECANATI","nomeBreve":"Porto Rec.","label":"","id":"S07504"},"esterno":false,"offsetX":0,"offsetY":0,"nomeCitta":"A"},{"codReg":11,"tipoStazione":3,"dettZoomStaz":[],"pstaz":[],"mappaCitta":{"urlImagePinpoint":"","urlImageBaloon":""},"codiceStazione":"S07508","codStazione":"S07508","lat":43.17972,"lon":13.7975,"latMappaCitta":0.0,"lonMappaCitta":0.0,"localita":{"nomeLungo":"PORTO S. GIORGIO FERMO","nomeBreve":"Porto S.Giorgio","label":"","id":"S07508"},"esterno":false,"offsetX":0,"offsetY":0,"nomeCitta":"A"},{"codReg":11,"tipoStazione":3,"dettZoomStaz":[],"pstaz":[],"mappaCitta":{"urlImagePinpoint":"","urlImageBaloon":""},"codiceStazione":"S07512","codStazione":"S07512","lat":42.99381,"lon":13.870265,"latMappaCitta":0.0,"lonMappaCitta":0.0,"localita":{"nomeLungo":"GROTTAMMARE","nomeBreve":"Grottammare","label":"","id":"S07512"},"esterno":false,"offsetX":0,"offsetY":0,"nomeCitta":"A"},{"codReg":11,"tipoStazione":3,"dettZoomStaz":[{"codiceStazione":"S07202","zoomStartRange":9,"zoomStopRange":9,"pinpointVisibile":true,"pinpointVisible":true,"labelVisibile":true,"labelVisible":true,"codiceRegione":null},{"codiceStazione":"S07202","zoomStartRange":10,"zoomStopRange":11,"pinpointVisibile":true,"pinpointVisible":true,"labelVisibile":true,"labelVisible":true,"codiceRegione":null}],"pstaz":[],"mappaCitta":{"urlImagePinpoint":"","urlImageBaloon":""},"codiceStazione":"S07202","codStazione":"S07202","lat":43.520164,"lon":13.251316,"latMappaCitta":0.0,"lonMappaCitta":0.0,"localita":{"nomeLungo":"JESI","nomeBreve":"Jesi","label":"","id":"S07202"},"esterno":false,"offsetX":-4,"offsetY":10,"nomeCitta":"Jesi"},{"codReg":11,"tipoStazione":3,"dettZoomStaz":[],"pstaz":[],"mappaCitta":{"urlImagePinpoint":"","urlImageBaloon":""},"codiceStazione":"S07500","codStazione":"S07500","lat":43.574729,"lon":13.523436,"latMappaCitta":0.0,"lonMappaCitta":0.0,"localita":{"nomeLungo":"VARANO","nomeBreve":"Varano","label":"","id":"S07500"},"esterno":false,"offsetX":0,"offsetY":0,"nomeCitta":"A"},{"codReg":11,"tipoStazione":3,"dettZoomStaz":[],"pstaz":[],"mappaCitta":{"urlImagePinpoint":"","urlImageBaloon":""},"codiceStazione":"S07511","codStazione":"S07511","lat":43.02349,"lon":13.860812,"latMappaCitta":0.0,"lonMappaCitta":0.0,"localita":{"nomeLungo":"CUPRAMARITTIMA","nomeBreve":"Cupramarittima","label":"","id":"S07511"},"esterno":false,"offsetX":0,"offsetY":0,"nomeCitta":"A"},{"codReg":11,"tipoStazione":3,"dettZoomStaz":[{"codiceStazione":"S07208","zoomStartRange":9,"zoomStopRange":9,"pinpointVisibile":true,"pinpointVisible":true,"labelVisibile":true,"labelVisible":true,"codiceRegione":null},{"codiceStazione":"S07208","zoomStartRange":10,"zoomStopRange":11,"pinpointVisibile":true,"pinpointVisible":true,"labelVisibile":true,"labelVisible":true,"codiceRegione":null}],"pstaz":[],"mappaCitta":{"urlImagePinpoint":"","urlImageBaloon":""},"codiceStazione":"S07208","codStazione":"S07208","lat":43.345429,"lon":12.905336,"latMappaCitta":0.0,"lonMappaCitta":0.0,"localita":{"nomeLungo":"FABRIANO","nomeBreve":"Fabriano","label":"","id":"S07208"},"esterno":false,"offsetX":50,"offsetY":18,"nomeCitta":"Fabriano"},{"codReg":11,"tipoStazione":3,"dettZoomStaz":[],"pstaz":[],"mappaCitta":{"urlImagePinpoint":"","urlImageBaloon":""},"codiceStazione":"S07105","codStazione":"S07105","lat":43.842977,"lon":13.02478,"latMappaCitta":0.0,"lonMappaCitta":0.0,"localita":{"nomeLungo":"FANO","nomeBreve":"Fano","label":"","id":"S07105"},"esterno":false,"offsetX":0,"offsetY":0,"nomeCitta":"A"},{"codReg":11,"tipoStazione":3,"dettZoomStaz":[],"pstaz":[],"mappaCitta":{"urlImagePinpoint":"","urlImageBaloon":""},"codiceStazione":"S07505","codStazione":"S07505","lat":43.36991,"lon":13.59265,"latMappaCitta":0.0,"lonMappaCitta":0.0,"localita":{"nomeLungo":"POTENZA PICENA MONTELUPONE","nomeBreve":"Potenza Pic.","label":"","id":"S07505"},"esterno":false,"offsetX":0,"offsetY":0,"nomeCitta":"A"},{"codReg":11,"tipoStazione":3,"dettZoomStaz":[{"codiceStazione":"S07307","zoomStartRange":9,"zoomStopRange":9,"pinpointVisibile":true,"pinpointVisible":true,"labelVisibile":true,"labelVisible":true,"codiceRegione":null},{"codiceStazione":"S07307","zoomStartRange":10,"zoomStopRange":11,"pinpointVisibile":true,"pinpointVisible":true,"labelVisibile":true,"labelVisible":true,"codiceRegione":null}],"pstaz":[],"mappaCitta":{"urlImagePinpoint":"","urlImageBaloon":""},"codiceStazione":"S07307","codStazione":"S07307","lat":43.293094,"lon":13.455172,"latMappaCitta":0.0,"lonMappaCitta":0.0,"localita":{"nomeLungo":"MACERATA","nomeBreve":"Macerata","label":"Macerata","id":"S07307"},"esterno":false,"offsetX":50,"offsetY":0,"nomeCitta":"Macerata"},{"codReg":11,"tipoStazione":3,"dettZoomStaz":[],"pstaz":[],"mappaCitta":{"urlImagePinpoint":"","urlImageBaloon":""},"codiceStazione":"S07555","codStazione":"S07555","lat":42.844918,"lon":13.664738,"latMappaCitta":0.0,"lonMappaCitta":0.0,"localita":{"nomeLungo":"MALTIGNANO DEL TRONTO","nomeBreve":"Maltignano T.","label":"","id":"S07555"},"esterno":false,"offsetX":0,"offsetY":0,"nomeCitta":"A"},{"codReg":11,"tipoStazione":3,"dettZoomStaz":[],"pstaz":[],"mappaCitta":{"urlImagePinpoint":"","urlImageBaloon":""},"codiceStazione":"S07107","codStazione":"S07107","lat":43.769748,"lon":13.137273,"latMappaCitta":0.0,"lonMappaCitta":0.0,"localita":{"nomeLungo":"MAROTTA MONDOLFO","nomeBreve":"Marotta Mondolfo","label":"","id":"S07107"},"esterno":false,"offsetX":0,"offsetY":0,"nomeCitta":"A"},{"codReg":11,"tipoStazione":3,"dettZoomStaz":[],"pstaz":[],"mappaCitta":{"urlImagePinpoint":"","urlImageBaloon":""},"codiceStazione":"S07109","codStazione":"S07109","lat":43.677362,"lon":13.287922,"latMappaCitta":0.0,"lonMappaCitta":0.0,"localita":{"nomeLungo":"MARZOCCA","nomeBreve":"Marzocca","label":"","id":"S07109"},"esterno":false,"offsetX":0,"offsetY":0,"nomeCitta":"A"},{"codReg":11,"tipoStazione":3,"dettZoomStaz":[],"pstaz":[],"mappaCitta":{"urlImagePinpoint":"","urlImageBaloon":""},"codiceStazione":"S07301","codStazione":"S07301","lat":43.25394,"lon":13.01509,"latMappaCitta":0.0,"lonMappaCitta":0.0,"localita":{"nomeLungo":"MATELICA","nomeBreve":"Matelica","label":"","id":"S07301"},"esterno":false,"offsetX":0,"offsetY":0,"nomeCitta":"A"},{"codReg":11,"tipoStazione":3,"dettZoomStaz":[],"pstaz":[],"mappaCitta":{"urlImagePinpoint":"","urlImageBaloon":""},"codiceStazione":"S07112","codStazione":"S07112","lat":43.61701,"lon":13.429721,"latMappaCitta":0.0,"lonMappaCitta":0.0,"localita":{"nomeLungo":"PALOMBINA","nomeBreve":"Palombina","label":"","id":"S07112"},"esterno":false,"offsetX":0,"offsetY":0,"nomeCitta":"A"},{"codReg":11,"tipoStazione":3,"dettZoomStaz":[],"pstaz":[],"mappaCitta":{"urlImagePinpoint":"","urlImageBaloon":""},"codiceStazione":"S07503","codStazione":"S07503","lat":43.448376,"lon":13.620455,"latMappaCitta":0.0,"lonMappaCitta":0.0,"localita":{"nomeLungo":"LORETO","nomeBreve":"Loreto","label":"","id":"S07503"},"esterno":false,"offsetX":0,"offsetY":0,"nomeCitta":"A"},{"codReg":11,"tipoStazione":3,"dettZoomStaz":[],"pstaz":[],"mappaCitta":{"urlImagePinpoint":"","urlImageBaloon":""},"codiceStazione":"S07110","codStazione":"S07110","lat":43.651397,"lon":13.346478,"latMappaCitta":0.0,"lonMappaCitta":0.0,"localita":{"nomeLungo":"MONTEMARCIANO","nomeBreve":"Montemarciano","label":"","id":"S07110"},"esterno":false,"offsetX":0,"offsetY":0,"nomeCitta":"A"},{"codReg":11,"tipoStazione":3,"dettZoomStaz":[],"pstaz":[],"mappaCitta":{"urlImagePinpoint":"","urlImageBaloon":""},"codiceStazione":"S07554","codStazione":"S07554","lat":42.894183,"lon":13.849996,"latMappaCitta":0.0,"lonMappaCitta":0.0,"localita":{"nomeLungo":"MONTEPRANDONE","nomeBreve":"Monteprandone","label":"","id":"S07554"},"esterno":false,"offsetX":0,"offsetY":0,"nomeCitta":"A"},{"codReg":11,"tipoStazione":3,"dettZoomStaz":[],"pstaz":[],"mappaCitta":{"urlImagePinpoint":"","urlImageBaloon":""},"codiceStazione":"S07062","codStazione":"S07062","lat":43.462227,"lon":12.818339,"latMappaCitta":0.0,"lonMappaCitta":0.0,"localita":{"nomeLungo":"MONTEROSSO MARCHE","nomeBreve":"Monterosso M.","label":"","id":"S07062"},"esterno":false,"offsetX":0,"offsetY":0,"nomeCitta":"A"},{"codReg":11,"tipoStazione":4,"dettZoomStaz":[{"codiceStazione":"S07209","zoomStartRange":9,"zoomStopRange":9,"pinpointVisibile":true,"pinpointVisible":true,"labelVisibile":true,"labelVisible":true,"codiceRegione":null},{"codiceStazione":"S07209","zoomStartRange":10,"zoomStopRange":11,"pinpointVisibile":true,"pinpointVisible":true,"labelVisibile":true,"labelVisible":true,"codiceRegione":null}],"pstaz":[],"mappaCitta":{"urlImagePinpoint":"","urlImageBaloon":""},"codiceStazione":"S07209","codStazione":"S07209","lat":43.283798,"lon":12.757258,"latMappaCitta":0.0,"lonMappaCitta":0.0,"localita":{"nomeLungo":"FOSSATO DI VICO GUBBIO","nomeBreve":"Fossato di V.G.","label":"","id":"S07209"},"esterno":true,"offsetX":88,"offsetY":20,"nomeCitta":"Fossato di Vico"},{"codReg":11,"tipoStazione":3,"dettZoomStaz":[],"pstaz":[],"mappaCitta":{"urlImagePinpoint":"","urlImageBaloon":""},"codiceStazione":"S07551","codStazione":"S07551","lat":42.862074,"lon":13.720285,"latMappaCitta":0.0,"lonMappaCitta":0.0,"localita":{"nomeLungo":"OFFIDA CASTEL DI LAMA","nomeBreve":"Offida","label":"","id":"S07551"},"esterno":false,"offsetX":0,"offsetY":0,"nomeCitta":"A"},{"codReg":11,"tipoStazione":3,"dettZoomStaz":[],"pstaz":[],"mappaCitta":{"urlImagePinpoint":"","urlImageBaloon":""},"codiceStazione":"S07502","codStazione":"S07502","lat":43.497033,"lon":13.547263,"latMappaCitta":0.0,"lonMappaCitta":0.0,"localita":{"nomeLungo":"OSIMO CASTELFIDARDO","nomeBreve":"Osimo Castelf.","label":"","id":"S07502"},"esterno":false,"offsetX":0,"offsetY":0,"nomeCitta":"A"},{"codReg":11,"tipoStazione":3,"dettZoomStaz":[],"pstaz":[],"mappaCitta":{"urlImagePinpoint":"","urlImageBaloon":""},"codiceStazione":"S07312","codStazione":"S07312","lat":43.287357,"lon":13.532751,"latMappaCitta":0.0,"lonMappaCitta":0.0,"localita":{"nomeLungo":"S.CLAUDIO","nomeBreve":"S.Claudio","label":"","id":"S07312"},"esterno":false,"offsetX":0,"offsetY":0,"nomeCitta":"A"},{"codReg":11,"tipoStazione":3,"dettZoomStaz":[{"codiceStazione":"S07104","zoomStartRange":9,"zoomStopRange":9,"pinpointVisibile":true,"pinpointVisible":true,"labelVisibile":true,"labelVisible":true,"codiceRegione":null},{"codiceStazione":"S07104","zoomStartRange":10,"zoomStopRange":11,"pinpointVisibile":true,"pinpointVisible":true,"labelVisibile":true,"labelVisible":true,"codiceRegione":null}],"pstaz":[],"mappaCitta":{"urlImagePinpoint":"","urlImageBaloon":""},"codiceStazione":"S07104","codStazione":"S07104","lat":43.906014,"lon":12.904848,"latMappaCitta":0.0,"lonMappaCitta":0.0,"localita":{"nomeLungo":"PESARO","nomeBreve":"Pesaro","label":"Pesaro","id":"S07104"},"esterno":false,"offsetX":-4,"offsetY":18,"nomeCitta":"Pesaro"},{"codReg":11,"tipoStazione":4,"dettZoomStaz":[{"codiceStazione":"S07810","zoomStartRange":9,"zoomStopRange":9,"pinpointVisibile":true,"pinpointVisible":true,"labelVisibile":true,"labelVisible":true,"codiceRegione":null},{"codiceStazione":"S07810","zoomStartRange":10,"zoomStopRange":11,"pinpointVisibile":true,"pinpointVisible":true,"labelVisibile":true,"labelVisible":true,"codiceRegione":null}],"pstaz":[],"mappaCitta":{"urlImagePinpoint":"","urlImageBaloon":""},"codiceStazione":"S07810","codStazione":"S07810","lat":42.467789,"lon":14.205066,"latMappaCitta":0.0,"lonMappaCitta":0.0,"localita":{"nomeLungo":"PESCARA","nomeBreve":"Pescara","label":"Pescara","id":"S07810"},"esterno":true,"offsetX":-4,"offsetY":18,"nomeCitta":"Pescara"},{"codReg":11,"tipoStazione":3,"dettZoomStaz":[],"pstaz":[],"mappaCitta":{"urlImagePinpoint":"","urlImageBaloon":""},"codiceStazione":"S07510","codStazione":"S07510","lat":43.094694,"lon":13.844906,"latMappaCitta":0.0,"lonMappaCitta":0.0,"localita":{"nomeLungo":"PEDASO","nomeBreve":"Pedaso","label":"","id":"S07510"},"esterno":false,"offsetX":0,"offsetY":0,"nomeCitta":"A"},{"codReg":11,"tipoStazione":3,"dettZoomStaz":[{"codiceStazione":"S07060","zoomStartRange":9,"zoomStopRange":9,"pinpointVisibile":true,"pinpointVisible":true,"labelVisibile":true,"labelVisible":true,"codiceRegione":null},{"codiceStazione":"S07060","zoomStartRange":10,"zoomStopRange":11,"pinpointVisibile":true,"pinpointVisible":true,"labelVisibile":true,"labelVisible":true,"codiceRegione":null}],"pstaz":[],"mappaCitta":{"urlImagePinpoint":"","urlImageBaloon":""},"codiceStazione":"S07060","codStazione":"S07060","lat":43.549653,"lon":12.832973,"latMappaCitta":0.0,"lonMappaCitta":0.0,"localita":{"nomeLungo":"PERGOLA","nomeBreve":"Pergola","label":"","id":"S07060"},"esterno":false,"offsetX":48,"offsetY":20,"nomeCitta":"Pergola"},{"codReg":11,"tipoStazione":3,"dettZoomStaz":[],"pstaz":[],"mappaCitta":{"urlImagePinpoint":"","urlImageBaloon":""},"codiceStazione":"S07309","codStazione":"S07309","lat":43.279189,"lon":13.58285,"latMappaCitta":0.0,"lonMappaCitta":0.0,"localita":{"nomeLungo":"MORROVALLE MONTE S.GIUSTO","nomeBreve":"Morrovalle Msg","label":"","id":"S07309"},"esterno":false,"offsetX":0,"offsetY":0,"nomeCitta":"A"},{"codReg":11,"tipoStazione":3,"dettZoomStaz":[],"pstaz":[],"mappaCitta":{"urlImagePinpoint":"","urlImageBaloon":""},"codiceStazione":"S07234","codStazione":"S07234","lat":43.500941,"lon":13.183116,"latMappaCitta":0.0,"lonMappaCitta":0.0,"localita":{"nomeLungo":"PANTIERE DI CASTELBELLINO","nomeBreve":"Pantiere di C.","label":"","id":"S07234"},"esterno":false,"offsetX":0,"offsetY":0,"nomeCitta":"A"},{"codReg":11,"tipoStazione":3,"dettZoomStaz":[],"pstaz":[],"mappaCitta":{"urlImagePinpoint":"","urlImageBaloon":""},"codiceStazione":"S07063","codStazione":"S07063","lat":43.435381,"lon":12.851514,"latMappaCitta":0.0,"lonMappaCitta":0.0,"localita":{"nomeLungo":"SASSOFERRATO ARCEVIA","nomeBreve":"Sassoferrato A.","label":"","id":"S07063"},"esterno":false,"offsetX":0,"offsetY":0,"nomeCitta":"A"},{"codReg":11,"tipoStazione":3,"dettZoomStaz":[],"pstaz":[],"mappaCitta":{"urlImagePinpoint":"","urlImageBaloon":""},"codiceStazione":"S07205","codStazione":"S07205","lat":43.444879,"lon":13.027408,"latMappaCitta":0.0,"lonMappaCitta":0.0,"localita":{"nomeLungo":"SERRA S.QUIRICO","nomeBreve":"Serra S.Quirico","label":"","id":"S07205"},"esterno":false,"offsetX":0,"offsetY":0,"nomeCitta":"A"},{"codReg":11,"tipoStazione":3,"dettZoomStaz":[],"pstaz":[],"mappaCitta":{"urlImagePinpoint":"","urlImageBaloon":""},"codiceStazione":"S07552","codStazione":"S07552","lat":42.87032,"lon":13.762811,"latMappaCitta":0.0,"lonMappaCitta":0.0,"localita":{"nomeLungo":"SPINETOLI COLLI","nomeBreve":"Spinetoli C.","label":"","id":"S07552"},"esterno":false,"offsetX":0,"offsetY":0,"nomeCitta":"A"},{"codReg":11,"tipoStazione":4,"dettZoomStaz":[{"codiceStazione":"S07102","zoomStartRange":9,"zoomStopRange":9,"pinpointVisibile":true,"pinpointVisible":true,"labelVisibile":true,"labelVisible":true,"codiceRegione":null},{"codiceStazione":"S07102","zoomStartRange":10,"zoomStopRange":11,"pinpointVisibile":true,"pinpointVisible":true,"labelVisibile":true,"labelVisible":true,"codiceRegione":null}],"pstaz":[],"mappaCitta":{"urlImagePinpoint":"","urlImageBaloon":""},"codiceStazione":"S07102","codStazione":"S07102","lat":43.959931,"lon":12.745087,"latMappaCitta":0.0,"lonMappaCitta":0.0,"localita":{"nomeLungo":"CATTOLICA S.GIOVANNI GABICCE","nomeBreve":"Cattolica S.G.G.","label":"Cattolica","id":"S07102"},"esterno":true,"offsetX":50,"offsetY":0,"nomeCitta":"Cattolica"}]