[{"codReg":13,"tipoStazione":3,"dettZoomStaz":[],"pstaz":[],"mappaCitta":{"urlImagePinpoint":"","urlImageBaloon":""},"codiceStazione":"S06516","codStazione":"S06516","lat":43.789684,"lon":11.171665,"latMappaCitta":0.0,"lonMappaCitta":0.0,"localita":{"nomeLungo":"LE PIAGGE","nomeBreve":"Le Piagge","label":"","id":"S06516"},"esterno":false,"offsetX":0,"offsetY":0,"nomeCitta":"A"},{"codReg":13,"tipoStazione":3,"dettZoomStaz":[],"pstaz":[],"mappaCitta":{"urlImagePinpoint":"","urlImageBaloon":""},"codiceStazione":"S06804","codStazione":"S06804","lat":43.631183,"lon":10.958997,"latMappaCitta":0.0,"lonMappaCitta":0.0,"localita":{"nomeLungo":"CAMBIANO","nomeBreve":"Cambiano","label":"","id":"S06804"},"esterno":false,"offsetX":0,"offsetY":0,"nomeCitta":"A"},{"codReg":13,"tipoStazione":3,"dettZoomStaz":[],"pstaz":[],"mappaCitta":{"urlImagePinpoint":"","urlImageBaloon":""},"codiceStazione":"S06024","codStazione":"S06024","lat":43.406122,"lon":10.495776,"latMappaCitta":0.0,"lonMappaCitta":0.0,"localita":{"nomeLungo":"CASTELLINA MARITTIMA","nomeBreve":"Castellina Marit","label":"","id":"S06024"},"esterno":false,"offsetX":0,"offsetY":0,"nomeCitta":"A"},{"codReg":13,"tipoStazione":3,"dettZoomStaz":[],"pstaz":[],"mappaCitta":{"urlImagePinpoint":"","urlImageBaloon":""},"codiceStazione":"S06302","codStazione":"S06302","lat":44.09007,"lon":10.455061,"latMappaCitta":0.0,"lonMappaCitta":0.0,"localita":{"nomeLungo":"CASTELVECCHIO PASCOLI","nomeBreve":"Castelvecchio P.","label":"","id":"S06302"},"esterno":false,"offsetX":0,"offsetY":0,"nomeCitta":"A"},{"codReg":13,"tipoStazione":3,"dettZoomStaz":[],"pstaz":[],"mappaCitta":{"urlImagePinpoint":"","urlImageBaloon":""},"codiceStazione":"S06729","codStazione":"S06729","lat":43.404619,"lon":10.414354,"latMappaCitta":0.0,"lonMappaCitta":0.0,"localita":{"nomeLungo":"CASTIGLIONCELLO","nomeBreve":"Castiglioncello","label":"","id":"S06729"},"esterno":false,"offsetX":0,"offsetY":0,"nomeCitta":"A"},{"codReg":13,"tipoStazione":3,"dettZoomStaz":[],"pstaz":[],"mappaCitta":{"urlImagePinpoint":"","urlImageBaloon":""},"codiceStazione":"S06803","codStazione":"S06803","lat":43.547124,"lon":11.037711,"latMappaCitta":0.0,"lonMappaCitta":0.0,"localita":{"nomeLungo":"CERTALDO","nomeBreve":"Certaldo","label":"","id":"S06803"},"esterno":false,"offsetX":0,"offsetY":0,"nomeCitta":"A"},{"codReg":13,"tipoStazione":3,"dettZoomStaz":[],"pstaz":[],"mappaCitta":{"urlImagePinpoint":"","urlImageBaloon":""},"codiceStazione":"S06430","codStazione":"S06430","lat":43.787273,"lon":11.249738,"latMappaCitta":0.0,"lonMappaCitta":0.0,"localita":{"nomeLungo":"FIRENZE STATUTO","nomeBreve":"Firenze Statuto","label":"","id":"S06430"},"esterno":false,"offsetX":0,"offsetY":0,"nomeCitta":"A"},{"codReg":13,"tipoStazione":3,"dettZoomStaz":[],"pstaz":[],"mappaCitta":{"urlImagePinpoint":"","urlImageBaloon":""},"codiceStazione":"S06920","codStazione":"S06920","lat":43.34075,"lon":11.914362,"latMappaCitta":0.0,"lonMappaCitta":0.0,"localita":{"nomeLungo":"CASTIGLION FIORENTINO","nomeBreve":"Castigl.Fiorent.","label":"","id":"S06920"},"esterno":false,"offsetX":0,"offsetY":0,"nomeCitta":"A"},{"codReg":13,"tipoStazione":3,"dettZoomStaz":[{"codiceStazione":"S06925","zoomStartRange":8,"zoomStopRange":9,"pinpointVisibile":true,"pinpointVisible":true,"labelVisibile":false,"labelVisible":false,"codiceRegione":null},{"codiceStazione":"S06925","zoomStartRange":10,"zoomStopRange":11,"pinpointVisibile":true,"pinpointVisible":true,"labelVisibile":true,"labelVisible":true,"codiceRegione":null}],"pstaz":[],"mappaCitta":{"urlImagePinpoint":"","urlImageBaloon":""},"codiceStazione":"S06925","codStazione":"S06925","lat":43.002466,"lon":11.957893,"latMappaCitta":0.0,"lonMappaCitta":0.0,"localita":{"nomeLungo":"CHIUSI C.T.","nomeBreve":"Chiusi C.T.","label":"Chiusi","id":"S06925"},"esterno":false,"offsetX":-4,"offsetY":10,"nomeCitta":"Chiusi C.T."},{"codReg":13,"tipoStazione":3,"dettZoomStaz":[],"pstaz":[],"mappaCitta":{"urlImagePinpoint":"","urlImageBaloon":""},"codiceStazione":"S08007","codStazione":"S08007","lat":42.387528,"lon":11.446123,"latMappaCitta":0.0,"lonMappaCitta":0.0,"localita":{"nomeLungo":"CHIARONE","nomeBreve":"Chiarone","label":"","id":"S08007"},"esterno":false,"offsetX":0,"offsetY":0,"nomeCitta":"A"},{"codReg":13,"tipoStazione":3,"dettZoomStaz":[{"codiceStazione":"S08008","zoomStartRange":8,"zoomStopRange":9,"pinpointVisibile":true,"pinpointVisible":true,"labelVisibile":true,"labelVisible":true,"codiceRegione":null},{"codiceStazione":"S08008","zoomStartRange":10,"zoomStopRange":11,"pinpointVisibile":true,"pinpointVisible":true,"labelVisibile":true,"labelVisible":true,"codiceRegione":null}],"pstaz":[],"mappaCitta":{"urlImagePinpoint":"","urlImageBaloon":""},"codiceStazione":"S08008","codStazione":"S08008","lat":42.334623,"lon":11.595085,"latMappaCitta":0.0,"lonMappaCitta":0.0,"localita":{"nomeLungo":"MONTALTO DI CASTRO","nomeBreve":"Montalto di Cas.","label":"","id":"S08008"},"esterno":true,"offsetX":-4,"offsetY":18,"nomeCitta":"Montalto di Cas."},{"codReg":13,"tipoStazione":4,"dettZoomStaz":[{"codiceStazione":"S08409","zoomStartRange":8,"zoomStopRange":9,"pinpointVisibile":true,"pinpointVisible":true,"labelVisibile":true,"labelVisible":true,"codiceRegione":null},{"codiceStazione":"S08409","zoomStartRange":10,"zoomStopRange":11,"pinpointVisibile":true,"pinpointVisible":true,"labelVisibile":true,"labelVisible":true,"codiceRegione":null}],"pstaz":[],"mappaCitta":{"urlImagePinpoint":"","urlImageBaloon":""},"codiceStazione":"S08409","codStazione":"S08409","lat":41.900636,"lon":12.502026,"latMappaCitta":0.0,"lonMappaCitta":0.0,"localita":{"nomeLungo":"ROMA TERMINI","nomeBreve":"Roma Termini","label":"Roma","id":"S08409"},"esterno":true,"offsetX":-4,"offsetY":10,"nomeCitta":"Roma"},{"codReg":13,"tipoStazione":3,"dettZoomStaz":[],"pstaz":[],"mappaCitta":{"urlImagePinpoint":"","urlImageBaloon":""},"codiceStazione":"S06825","codStazione":"S06825","lat":43.231706,"lon":11.563621,"latMappaCitta":0.0,"lonMappaCitta":0.0,"localita":{"nomeLungo":"ASCIANO MONTE OLIVETO MAGGIORE","nomeBreve":"Asciano M.O.M.","label":"","id":"S06825"},"esterno":false,"offsetX":0,"offsetY":0,"nomeCitta":"A"},{"codReg":13,"tipoStazione":4,"dettZoomStaz":[{"codiceStazione":"F00017","zoomStartRange":6,"zoomStopRange":11,"pinpointVisibile":false,"pinpointVisible":false,"labelVisibile":false,"labelVisible":false,"codiceRegione":null}],"pstaz":[],"mappaCitta":{"urlImagePinpoint":"","urlImageBaloon":""},"codiceStazione":"F00017","codStazione":"F00017","lat":43.211682,"lon":12.159119,"latMappaCitta":0.0,"lonMappaCitta":0.0,"localita":{"nomeLungo":"F00017","nomeBreve":"F00017","label":"","id":"F00017"},"esterno":false,"offsetX":0,"offsetY":0,"nomeCitta":"F00017"},{"codReg":13,"tipoStazione":3,"dettZoomStaz":[],"pstaz":[],"mappaCitta":{"urlImagePinpoint":"","urlImageBaloon":""},"codiceStazione":"S06950","codStazione":"S06950","lat":43.790336,"lon":11.267403,"latMappaCitta":0.0,"lonMappaCitta":0.0,"localita":{"nomeLungo":"BINARIO S.MARCO VECCHIO","nomeBreve":"Binario.S.M.V.","label":"","id":"S06950"},"esterno":false,"offsetX":0,"offsetY":0,"nomeCitta":"A"},{"codReg":13,"tipoStazione":3,"dettZoomStaz":[],"pstaz":[],"mappaCitta":{"urlImagePinpoint":"","urlImageBaloon":""},"codiceStazione":"S06402","codStazione":"S06402","lat":43.821711,"lon":10.415733,"latMappaCitta":0.0,"lonMappaCitta":0.0,"localita":{"nomeLungo":"RIPAFRATTA","nomeBreve":"Ripafratta","label":"","id":"S06402"},"esterno":false,"offsetX":0,"offsetY":0,"nomeCitta":"A"},{"codReg":13,"tipoStazione":3,"dettZoomStaz":[],"pstaz":[],"mappaCitta":{"urlImagePinpoint":"","urlImageBaloon":""},"codiceStazione":"S06509","codStazione":"S06509","lat":43.701383,"lon":10.831605,"latMappaCitta":0.0,"lonMappaCitta":0.0,"localita":{"nomeLungo":"S.MINIATO FUCECCHIO","nomeBreve":"S.Miniato F.","label":"","id":"S06509"},"esterno":false,"offsetX":0,"offsetY":0,"nomeCitta":"A"},{"codReg":13,"tipoStazione":3,"dettZoomStaz":[],"pstaz":[],"mappaCitta":{"urlImagePinpoint":"","urlImageBaloon":""},"codiceStazione":"S06313","codStazione":"S06313","lat":43.875094,"lon":10.530945,"latMappaCitta":0.0,"lonMappaCitta":0.0,"localita":{"nomeLungo":"S. PIETRO A VICO","nomeBreve":"S. Pietro a Vico","label":"","id":"S06313"},"esterno":false,"offsetX":0,"offsetY":0,"nomeCitta":"A"},{"codReg":13,"tipoStazione":3,"dettZoomStaz":[],"pstaz":[],"mappaCitta":{"urlImagePinpoint":"","urlImageBaloon":""},"codiceStazione":"S06508","codStazione":"S06508","lat":43.690575,"lon":10.760152,"latMappaCitta":0.0,"lonMappaCitta":0.0,"localita":{"nomeLungo":"S.ROMANO MONTOPOLI S.CROCE","nomeBreve":"S.Romano","label":"","id":"S06508"},"esterno":false,"offsetX":0,"offsetY":0,"nomeCitta":"A"},{"codReg":13,"tipoStazione":4,"dettZoomStaz":[{"codiceStazione":"S06170","zoomStartRange":8,"zoomStopRange":9,"pinpointVisibile":true,"pinpointVisible":true,"labelVisibile":true,"labelVisible":true,"codiceRegione":null},{"codiceStazione":"S06170","zoomStartRange":10,"zoomStopRange":11,"pinpointVisibile":true,"pinpointVisible":true,"labelVisibile":true,"labelVisible":true,"codiceRegione":null}],"pstaz":[],"mappaCitta":{"urlImagePinpoint":"","urlImageBaloon":""},"codiceStazione":"S06170","codStazione":"S06170","lat":44.156857,"lon":9.915202,"latMappaCitta":0.0,"lonMappaCitta":0.0,"localita":{"nomeLungo":"S. STEFANO DI MAGRA","nomeBreve":"S.Stefano Magra","label":"","id":"S06170"},"esterno":true,"offsetX":110,"offsetY":18,"nomeCitta":"S. Stefano di Magra"},{"codReg":13,"tipoStazione":3,"dettZoomStaz":[],"pstaz":[],"mappaCitta":{"urlImagePinpoint":"","urlImageBaloon":""},"codiceStazione":"S06413","codStazione":"S06413","lat":43.908016,"lon":10.85168,"latMappaCitta":0.0,"lonMappaCitta":0.0,"localita":{"nomeLungo":"SERRAVALLE PISTOIESE","nomeBreve":"Serravalle Pist.","label":"","id":"S06413"},"esterno":false,"offsetX":0,"offsetY":0,"nomeCitta":"A"},{"codReg":13,"tipoStazione":3,"dettZoomStaz":[],"pstaz":[],"mappaCitta":{"urlImagePinpoint":"","urlImageBaloon":""},"codiceStazione":"S06906","codStazione":"S06906","lat":43.720834,"lon":11.452383,"latMappaCitta":0.0,"lonMappaCitta":0.0,"localita":{"nomeLungo":"RIGNANO SULL`ARNO REGGELLO","nomeBreve":"Rignano s.Arno","label":"","id":"S06906"},"esterno":false,"offsetX":0,"offsetY":0,"nomeCitta":"A"},{"codReg":13,"tipoStazione":1,"dettZoomStaz":[{"codiceStazione":"S06421","zoomStartRange":8,"zoomStopRange":9,"pinpointVisibile":true,"pinpointVisible":true,"labelVisibile":true,"labelVisible":true,"codiceRegione":null},{"codiceStazione":"S06421","zoomStartRange":10,"zoomStopRange":11,"pinpointVisibile":true,"pinpointVisible":true,"labelVisibile":true,"labelVisible":true,"codiceRegione":null}],"pstaz":[],"mappaCitta":{"urlImagePinpoint":"","urlImageBaloon":""},"codiceStazione":"S06421","codStazione":"S06421","lat":43.776893,"lon":11.247373,"latMappaCitta":0.0,"lonMappaCitta":0.0,"localita":{"nomeLungo":"FIRENZE S.M.N.","nomeBreve":"Firenze S.M.N.","label":"Firenze","id":"S06421"},"esterno":false,"offsetX":20,"offsetY":0,"nomeCitta":"Firenze"},{"codReg":13,"tipoStazione":3,"dettZoomStaz":[],"pstaz":[],"mappaCitta":{"urlImagePinpoint":"","urlImageBaloon":""},"codiceStazione":"S06011","codStazione":"S06011","lat":43.97777,"lon":10.19936,"latMappaCitta":0.0,"lonMappaCitta":0.0,"localita":{"nomeLungo":"FORTE DEI MARMI SERRAVEZZA Q.","nomeBreve":"Forte Dei Marmi","label":"","id":"S06011"},"esterno":false,"offsetX":0,"offsetY":0,"nomeCitta":"A"},{"codReg":13,"tipoStazione":3,"dettZoomStaz":[],"pstaz":[],"mappaCitta":{"urlImagePinpoint":"","urlImageBaloon":""},"codiceStazione":"S06957","codStazione":"S06957","lat":43.786182,"lon":11.268501,"latMappaCitta":0.0,"lonMappaCitta":0.0,"localita":{"nomeLungo":"IL CIONFO BIN. LE CURE","nomeBreve":"Cionfo Binlecure","label":"","id":"S06957"},"esterno":false,"offsetX":0,"offsetY":0,"nomeCitta":"A"},{"codReg":13,"tipoStazione":3,"dettZoomStaz":[{"codiceStazione":"S06904","zoomStartRange":8,"zoomStopRange":9,"pinpointVisibile":true,"pinpointVisible":true,"labelVisibile":false,"labelVisible":false,"codiceRegione":null},{"codiceStazione":"S06904","zoomStartRange":10,"zoomStopRange":11,"pinpointVisibile":true,"pinpointVisible":true,"labelVisibile":true,"labelVisible":true,"codiceRegione":null}],"pstaz":[],"mappaCitta":{"urlImagePinpoint":"","urlImageBaloon":""},"codiceStazione":"S06904","codStazione":"S06904","lat":43.773949,"lon":11.437904,"latMappaCitta":0.0,"lonMappaCitta":0.0,"localita":{"nomeLungo":"PONTASSIEVE","nomeBreve":"Pontassieve","label":"","id":"S06904"},"esterno":false,"offsetX":0,"offsetY":0,"nomeCitta":"Pontassieve"},{"codReg":13,"tipoStazione":3,"dettZoomStaz":[],"pstaz":[],"mappaCitta":{"urlImagePinpoint":"","urlImageBaloon":""},"codiceStazione":"S06807","codStazione":"S06807","lat":43.694385,"lon":10.906008,"latMappaCitta":0.0,"lonMappaCitta":0.0,"localita":{"nomeLungo":"PONTE A ELSA","nomeBreve":"Ponte a Elsa","label":"","id":"S06807"},"esterno":false,"offsetX":0,"offsetY":0,"nomeCitta":"A"},{"codReg":13,"tipoStazione":3,"dettZoomStaz":[],"pstaz":[],"mappaCitta":{"urlImagePinpoint":"","urlImageBaloon":""},"codiceStazione":"S06312","codStazione":"S06312","lat":43.908371,"lon":10.534264,"latMappaCitta":0.0,"lonMappaCitta":0.0,"localita":{"nomeLungo":"PONTE A MORIANO","nomeBreve":"Ponte a Moriano","label":"","id":"S06312"},"esterno":false,"offsetX":0,"offsetY":0,"nomeCitta":"A"},{"codReg":13,"tipoStazione":3,"dettZoomStaz":[],"pstaz":[],"mappaCitta":{"urlImagePinpoint":"","urlImageBaloon":""},"codiceStazione":"S06869","codStazione":"S06869","lat":43.250844,"lon":11.39617,"latMappaCitta":0.0,"lonMappaCitta":0.0,"localita":{"nomeLungo":"PONTE A TRESSA","nomeBreve":"Ponte a Tressa","label":"","id":"S06869"},"esterno":false,"offsetX":0,"offsetY":0,"nomeCitta":"A"},{"codReg":13,"tipoStazione":3,"dettZoomStaz":[],"pstaz":[],"mappaCitta":{"urlImagePinpoint":"","urlImageBaloon":""},"codiceStazione":"S06752","codStazione":"S06752","lat":43.335594,"lon":10.740536,"latMappaCitta":0.0,"lonMappaCitta":0.0,"localita":{"nomeLungo":"PONTE GINORI","nomeBreve":"Ponte Ginori","label":"","id":"S06752"},"esterno":false,"offsetX":0,"offsetY":0,"nomeCitta":"A"},{"codReg":13,"tipoStazione":3,"dettZoomStaz":[],"pstaz":[],"mappaCitta":{"urlImagePinpoint":"","urlImageBaloon":""},"codiceStazione":"S06913","codStazione":"S06913","lat":43.481446,"lon":11.71657,"latMappaCitta":0.0,"lonMappaCitta":0.0,"localita":{"nomeLungo":"PONTICINO","nomeBreve":"Ponticino","label":"","id":"S06913"},"esterno":false,"offsetX":0,"offsetY":0,"nomeCitta":"A"},{"codReg":13,"tipoStazione":3,"dettZoomStaz":[{"codiceStazione":"S06163","zoomStartRange":8,"zoomStopRange":9,"pinpointVisibile":true,"pinpointVisible":true,"labelVisibile":false,"labelVisible":false,"codiceRegione":null},{"codiceStazione":"S06163","zoomStartRange":10,"zoomStopRange":11,"pinpointVisibile":true,"pinpointVisible":true,"labelVisibile":true,"labelVisible":true,"codiceRegione":null}],"pstaz":[],"mappaCitta":{"urlImagePinpoint":"","urlImageBaloon":""},"codiceStazione":"S06163","codStazione":"S06163","lat":44.371976,"lon":9.887795,"latMappaCitta":0.0,"lonMappaCitta":0.0,"localita":{"nomeLungo":"PONTREMOLI","nomeBreve":"Pontremoli","label":"","id":"S06163"},"esterno":false,"offsetX":68,"offsetY":20,"nomeCitta":"Pontremoli"},{"codReg":13,"tipoStazione":3,"dettZoomStaz":[],"pstaz":[],"mappaCitta":{"urlImagePinpoint":"","urlImageBaloon":""},"codiceStazione":"S06612","codStazione":"S06612","lat":44.102323,"lon":11.649045,"latMappaCitta":0.0,"lonMappaCitta":0.0,"localita":{"nomeLungo":"POPOLANO","nomeBreve":"Popolano","label":"","id":"S06612"},"esterno":false,"offsetX":0,"offsetY":0,"nomeCitta":"A"},{"codReg":13,"tipoStazione":3,"dettZoomStaz":[],"pstaz":[],"mappaCitta":{"urlImagePinpoint":"","urlImageBaloon":""},"codiceStazione":"S06406","codStazione":"S06406","lat":43.831263,"lon":10.619212,"latMappaCitta":0.0,"lonMappaCitta":0.0,"localita":{"nomeLungo":"PORCARI","nomeBreve":"Porcari","label":"","id":"S06406"},"esterno":false,"offsetX":0,"offsetY":0,"nomeCitta":"A"},{"codReg":13,"tipoStazione":4,"dettZoomStaz":[{"codiceStazione":"S05110","zoomStartRange":8,"zoomStopRange":9,"pinpointVisibile":true,"pinpointVisible":true,"labelVisibile":true,"labelVisible":true,"codiceRegione":null},{"codiceStazione":"S05110","zoomStartRange":10,"zoomStopRange":11,"pinpointVisibile":true,"pinpointVisible":true,"labelVisibile":true,"labelVisible":true,"codiceRegione":null}],"pstaz":[],"mappaCitta":{"urlImagePinpoint":"","urlImageBaloon":""},"codiceStazione":"S05110","codStazione":"S05110","lat":44.155757,"lon":10.978039,"latMappaCitta":0.0,"lonMappaCitta":0.0,"localita":{"nomeLungo":"PORRETTA  TERME","nomeBreve":"Porretta Terme","label":"","id":"S05110"},"esterno":true,"offsetX":85,"offsetY":20,"nomeCitta":"Porretta Terme"},{"codReg":13,"tipoStazione":3,"dettZoomStaz":[],"pstaz":[],"mappaCitta":{"urlImagePinpoint":"","urlImageBaloon":""},"codiceStazione":"S06037","codStazione":"S06037","lat":42.915473,"lon":11.008362,"latMappaCitta":0.0,"lonMappaCitta":0.0,"localita":{"nomeLungo":"GIUNCARICO","nomeBreve":"Giuncarico","label":"","id":"S06037"},"esterno":false,"offsetX":0,"offsetY":0,"nomeCitta":"A"},{"codReg":13,"tipoStazione":3,"dettZoomStaz":[],"pstaz":[],"mappaCitta":{"urlImagePinpoint":"","urlImageBaloon":""},"codiceStazione":"S06907","codStazione":"S06907","lat":43.656541,"lon":11.452728,"latMappaCitta":0.0,"lonMappaCitta":0.0,"localita":{"nomeLungo":"INCISA","nomeBreve":"Incisa","label":"","id":"S06907"},"esterno":false,"offsetX":0,"offsetY":0,"nomeCitta":"A"},{"codReg":13,"tipoStazione":3,"dettZoomStaz":[],"pstaz":[],"mappaCitta":{"urlImagePinpoint":"","urlImageBaloon":""},"codiceStazione":"S06914","codStazione":"S06914","lat":43.480067,"lon":11.803468,"latMappaCitta":0.0,"lonMappaCitta":0.0,"localita":{"nomeLungo":"INDICATORE","nomeBreve":"Indicatore","label":"","id":"S06914"},"esterno":false,"offsetX":0,"offsetY":0,"nomeCitta":"A"},{"codReg":13,"tipoStazione":3,"dettZoomStaz":[],"pstaz":[],"mappaCitta":{"urlImagePinpoint":"","urlImageBaloon":""},"codiceStazione":"S06514","codStazione":"S06514","lat":43.785424,"lon":11.142169,"latMappaCitta":0.0,"lonMappaCitta":0.0,"localita":{"nomeLungo":"S.DONNINO BADIA","nomeBreve":"S.Donnino Badia","label":"","id":"S06514"},"esterno":false,"offsetX":0,"offsetY":0,"nomeCitta":"A"},{"codReg":13,"tipoStazione":3,"dettZoomStaz":[],"pstaz":[],"mappaCitta":{"urlImagePinpoint":"","urlImageBaloon":""},"codiceStazione":"S06905","codStazione":"S06905","lat":43.742143,"lon":11.469621,"latMappaCitta":0.0,"lonMappaCitta":0.0,"localita":{"nomeLungo":"S.ELLERO","nomeBreve":"S.Ellero","label":"","id":"S06905"},"esterno":false,"offsetX":0,"offsetY":0,"nomeCitta":"A"},{"codReg":13,"tipoStazione":3,"dettZoomStaz":[],"pstaz":[],"mappaCitta":{"urlImagePinpoint":"","urlImageBaloon":""},"codiceStazione":"S06504","codStazione":"S06504","lat":43.680508,"lon":10.517254,"latMappaCitta":0.0,"lonMappaCitta":0.0,"localita":{"nomeLungo":"S.FREDIANO A SETTIMO","nomeBreve":"S.Frediano a S.","label":"","id":"S06504"},"esterno":false,"offsetX":0,"offsetY":0,"nomeCitta":"A"},{"codReg":13,"tipoStazione":3,"dettZoomStaz":[],"pstaz":[],"mappaCitta":{"urlImagePinpoint":"","urlImageBaloon":""},"codiceStazione":"S06909","codStazione":"S06909","lat":43.56601,"lon":11.527033,"latMappaCitta":0.0,"lonMappaCitta":0.0,"localita":{"nomeLungo":"S.GIOVANNI VALDARNO","nomeBreve":"S.Giovanni V.no","label":"","id":"S06909"},"esterno":false,"offsetX":0,"offsetY":0,"nomeCitta":"A"},{"codReg":13,"tipoStazione":3,"dettZoomStaz":[],"pstaz":[],"mappaCitta":{"urlImagePinpoint":"","urlImageBaloon":""},"codiceStazione":"S06023","codStazione":"S06023","lat":43.437248,"lon":10.48971,"latMappaCitta":0.0,"lonMappaCitta":0.0,"localita":{"nomeLungo":"SANTA LUCE","nomeBreve":"Santa Luce","label":"","id":"S06023"},"esterno":false,"offsetX":0,"offsetY":0,"nomeCitta":"A"},{"codReg":13,"tipoStazione":3,"dettZoomStaz":[{"codiceStazione":"S06805","zoomStartRange":8,"zoomStopRange":9,"pinpointVisibile":true,"pinpointVisible":true,"labelVisibile":false,"labelVisible":false,"codiceRegione":null},{"codiceStazione":"S06805","zoomStartRange":10,"zoomStopRange":11,"pinpointVisibile":true,"pinpointVisible":true,"labelVisibile":true,"labelVisible":true,"codiceRegione":null}],"pstaz":[],"mappaCitta":{"urlImagePinpoint":"","urlImageBaloon":""},"codiceStazione":"S06805","codStazione":"S06805","lat":43.468093,"lon":11.149455,"latMappaCitta":0.0,"lonMappaCitta":0.0,"localita":{"nomeLungo":"POGGIBONSI","nomeBreve":"Poggibonsi","label":"","id":"S06805"},"esterno":false,"offsetX":-4,"offsetY":10,"nomeCitta":"Poggibonsi"},{"codReg":13,"tipoStazione":3,"dettZoomStaz":[],"pstaz":[],"mappaCitta":{"urlImagePinpoint":"","urlImageBaloon":""},"codiceStazione":"S06323","codStazione":"S06323","lat":44.148541,"lon":10.350626,"latMappaCitta":0.0,"lonMappaCitta":0.0,"localita":{"nomeLungo":"POGGIO - CAREGGINE - VAGLI","nomeBreve":"Poggio-Car.-Vag.","label":"","id":"S06323"},"esterno":false,"offsetX":0,"offsetY":0,"nomeCitta":"A"},{"codReg":13,"tipoStazione":3,"dettZoomStaz":[],"pstaz":[],"mappaCitta":{"urlImagePinpoint":"","urlImageBaloon":""},"codiceStazione":"S06226","codStazione":"S06226","lat":44.170282,"lon":10.153624,"latMappaCitta":0.0,"lonMappaCitta":0.0,"localita":{"nomeLungo":"EQUI TERME","nomeBreve":"Equi Terme","label":"","id":"S06226"},"esterno":false,"offsetX":0,"offsetY":0,"nomeCitta":"A"},{"codReg":13,"tipoStazione":3,"dettZoomStaz":[{"codiceStazione":"S06922","zoomStartRange":8,"zoomStopRange":9,"pinpointVisibile":true,"pinpointVisible":true,"labelVisibile":false,"labelVisible":false,"codiceRegione":null},{"codiceStazione":"S06922","zoomStartRange":10,"zoomStopRange":11,"pinpointVisibile":true,"pinpointVisible":true,"labelVisibile":true,"labelVisible":true,"codiceRegione":null}],"pstaz":[],"mappaCitta":{"urlImagePinpoint":"","urlImageBaloon":""},"codiceStazione":"S06922","codStazione":"S06922","lat":43.210263,"lon":12.007906,"latMappaCitta":0.0,"lonMappaCitta":0.0,"localita":{"nomeLungo":"TERONTOLA CORTONA","nomeBreve":"Terontola","label":"","id":"S06922"},"esterno":false,"offsetX":-4,"offsetY":18,"nomeCitta":"Terontola"},{"codReg":13,"tipoStazione":3,"dettZoomStaz":[],"pstaz":[],"mappaCitta":{"urlImagePinpoint":"","urlImageBaloon":""},"codiceStazione":"S06167","codStazione":"S06167","lat":44.237379,"lon":9.959675,"latMappaCitta":0.0,"lonMappaCitta":0.0,"localita":{"nomeLungo":"TERRAROSSA - TRESANA","nomeBreve":"Terrarossa-Tres.","label":"","id":"S06167"},"esterno":false,"offsetX":0,"offsetY":0,"nomeCitta":"A"},{"codReg":13,"tipoStazione":3,"dettZoomStaz":[],"pstaz":[],"mappaCitta":{"urlImagePinpoint":"","urlImageBaloon":""},"codiceStazione":"S06720","codStazione":"S06720","lat":43.631726,"lon":10.352916,"latMappaCitta":0.0,"lonMappaCitta":0.0,"localita":{"nomeLungo":"TOMBOLO","nomeBreve":"Tombolo","label":"","id":"S06720"},"esterno":false,"offsetX":0,"offsetY":0,"nomeCitta":"A"},{"codReg":13,"tipoStazione":3,"dettZoomStaz":[],"pstaz":[],"mappaCitta":{"urlImagePinpoint":"","urlImageBaloon":""},"codiceStazione":"S06951","codStazione":"S06951","lat":43.798687,"lon":11.273076,"latMappaCitta":0.0,"lonMappaCitta":0.0,"localita":{"nomeLungo":"IL CIONFO BIN. SALVIATI","nomeBreve":"Cionfo Bin.Salvi","label":"","id":"S06951"},"esterno":false,"offsetX":0,"offsetY":0,"nomeCitta":"A"},{"codReg":13,"tipoStazione":3,"dettZoomStaz":[],"pstaz":[],"mappaCitta":{"urlImagePinpoint":"","urlImageBaloon":""},"codiceStazione":"S06952","codStazione":"S06952","lat":43.813899,"lon":11.265994,"latMappaCitta":0.0,"lonMappaCitta":0.0,"localita":{"nomeLungo":"PIAN DEL MUGNONE","nomeBreve":"Pian del Mugnone","label":"","id":"S06952"},"esterno":false,"offsetX":0,"offsetY":0,"nomeCitta":"A"},{"codReg":13,"tipoStazione":3,"dettZoomStaz":[],"pstaz":[],"mappaCitta":{"urlImagePinpoint":"","urlImageBaloon":""},"codiceStazione":"S06953","codStazione":"S06953","lat":43.833697,"lon":11.266047,"latMappaCitta":0.0,"lonMappaCitta":0.0,"localita":{"nomeLungo":"FIESOLE CALDINE","nomeBreve":"Fiesole Caldine","label":"","id":"S06953"},"esterno":false,"offsetX":0,"offsetY":0,"nomeCitta":"A"},{"codReg":13,"tipoStazione":3,"dettZoomStaz":[],"pstaz":[],"mappaCitta":{"urlImagePinpoint":"","urlImageBaloon":""},"codiceStazione":"S06954","codStazione":"S06954","lat":43.858111,"lon":11.265292,"latMappaCitta":0.0,"lonMappaCitta":0.0,"localita":{"nomeLungo":"MIMMOLE","nomeBreve":"Mimmole","label":"","id":"S06954"},"esterno":false,"offsetX":0,"offsetY":0,"nomeCitta":"A"},{"codReg":13,"tipoStazione":3,"dettZoomStaz":[],"pstaz":[],"mappaCitta":{"urlImagePinpoint":"","urlImageBaloon":""},"codiceStazione":"S06601","codStazione":"S06601","lat":43.881903,"lon":11.265484,"latMappaCitta":0.0,"lonMappaCitta":0.0,"localita":{"nomeLungo":"MONTORSOLI","nomeBreve":"Montorsoli","label":"","id":"S06601"},"esterno":false,"offsetX":0,"offsetY":0,"nomeCitta":"A"},{"codReg":13,"tipoStazione":3,"dettZoomStaz":[],"pstaz":[],"mappaCitta":{"urlImagePinpoint":"","urlImageBaloon":""},"codiceStazione":"S06956","codStazione":"S06956","lat":43.900121,"lon":11.265279,"latMappaCitta":0.0,"lonMappaCitta":0.0,"localita":{"nomeLungo":"CERCINA","nomeBreve":"Cercina","label":"","id":"S06956"},"esterno":false,"offsetX":0,"offsetY":0,"nomeCitta":"A"},{"codReg":13,"tipoStazione":3,"dettZoomStaz":[],"pstaz":[],"mappaCitta":{"urlImagePinpoint":"","urlImageBaloon":""},"codiceStazione":"S06619","codStazione":"S06619","lat":43.91751,"lon":11.265553,"latMappaCitta":0.0,"lonMappaCitta":0.0,"localita":{"nomeLungo":"FONTEBUONA","nomeBreve":"Fontebuona","label":"","id":"S06619"},"esterno":false,"offsetX":0,"offsetY":0,"nomeCitta":"A"},{"codReg":13,"tipoStazione":3,"dettZoomStaz":[],"pstaz":[],"mappaCitta":{"urlImagePinpoint":"","urlImageBaloon":""},"codiceStazione":"S06602","codStazione":"S06602","lat":43.924442,"lon":11.284576,"latMappaCitta":0.0,"lonMappaCitta":0.0,"localita":{"nomeLungo":"VAGLIA","nomeBreve":"Vaglia","label":"","id":"S06602"},"esterno":false,"offsetX":0,"offsetY":0,"nomeCitta":"A"},{"codReg":13,"tipoStazione":3,"dettZoomStaz":[],"pstaz":[],"mappaCitta":{"urlImagePinpoint":"","urlImageBaloon":""},"codiceStazione":"S06659","codStazione":"S06659","lat":43.937241,"lon":11.303593,"latMappaCitta":0.0,"lonMappaCitta":0.0,"localita":{"nomeLungo":"CAMPOMIGLIAIO","nomeBreve":"Campomigliaio","label":"","id":"S06659"},"esterno":false,"offsetX":0,"offsetY":0,"nomeCitta":"A"},{"codReg":13,"tipoStazione":3,"dettZoomStaz":[],"pstaz":[],"mappaCitta":{"urlImagePinpoint":"","urlImageBaloon":""},"codiceStazione":"S06705","codStazione":"S06705","lat":43.841117,"lon":11.497001,"latMappaCitta":0.0,"lonMappaCitta":0.0,"localita":{"nomeLungo":"SCOPETI","nomeBreve":"Scopeti","label":"","id":"S06705"},"esterno":false,"offsetX":0,"offsetY":0,"nomeCitta":"A"},{"codReg":13,"tipoStazione":3,"dettZoomStaz":[],"pstaz":[],"mappaCitta":{"urlImagePinpoint":"","urlImageBaloon":""},"codiceStazione":"S08003","codStazione":"S08003","lat":42.502165,"lon":11.21134,"latMappaCitta":0.0,"lonMappaCitta":0.0,"localita":{"nomeLungo":"ALBINIA","nomeBreve":"Albinia","label":"","id":"S08003"},"esterno":false,"offsetX":0,"offsetY":0,"nomeCitta":"A"},{"codReg":13,"tipoStazione":3,"dettZoomStaz":[],"pstaz":[],"mappaCitta":{"urlImagePinpoint":"","urlImageBaloon":""},"codiceStazione":"S06811","codStazione":"S06811","lat":43.294393,"lon":11.406225,"latMappaCitta":0.0,"lonMappaCitta":0.0,"localita":{"nomeLungo":"ARBIA","nomeBreve":"Arbia","label":"","id":"S06811"},"esterno":false,"offsetX":0,"offsetY":0,"nomeCitta":"A"},{"codReg":13,"tipoStazione":3,"dettZoomStaz":[],"pstaz":[],"mappaCitta":{"urlImagePinpoint":"","urlImageBaloon":""},"codiceStazione":"S05118","codStazione":"S05118","lat":44.027999,"lon":10.914798,"latMappaCitta":0.0,"lonMappaCitta":0.0,"localita":{"nomeLungo":"SAN MOMME`","nomeBreve":"San Momme'","label":"","id":"S05118"},"esterno":false,"offsetX":0,"offsetY":0,"nomeCitta":"A"},{"codReg":13,"tipoStazione":3,"dettZoomStaz":[],"pstaz":[],"mappaCitta":{"urlImagePinpoint":"","urlImageBaloon":""},"codiceStazione":"S05135","codStazione":"S05135","lat":44.043991,"lon":11.152342,"latMappaCitta":0.0,"lonMappaCitta":0.0,"localita":{"nomeLungo":"VERNIO MONTEPIANO CANTAGALLO","nomeBreve":"Vernio","label":"","id":"S05135"},"esterno":false,"offsetX":0,"offsetY":0,"nomeCitta":"A"},{"codReg":13,"tipoStazione":3,"dettZoomStaz":[],"pstaz":[],"mappaCitta":{"urlImagePinpoint":"","urlImageBaloon":""},"codiceStazione":"S06029","codStazione":"S06029","lat":43.16816,"lon":10.56399,"latMappaCitta":0.0,"lonMappaCitta":0.0,"localita":{"nomeLungo":"CASTAGNETO CARDUCCI","nomeBreve":"Castagneto C.","label":"","id":"S06029"},"esterno":false,"offsetX":0,"offsetY":0,"nomeCitta":"A"},{"codReg":13,"tipoStazione":3,"dettZoomStaz":[],"pstaz":[],"mappaCitta":{"urlImagePinpoint":"","urlImageBaloon":""},"codiceStazione":"S06306","codStazione":"S06306","lat":44.027583,"lon":10.510183,"latMappaCitta":0.0,"lonMappaCitta":0.0,"localita":{"nomeLungo":"GHIVIZZANO - COREGLIA","nomeBreve":"Ghivizzano-Cor.","label":"","id":"S06306"},"esterno":false,"offsetX":0,"offsetY":0,"nomeCitta":"A"},{"codReg":13,"tipoStazione":3,"dettZoomStaz":[],"pstaz":[],"mappaCitta":{"urlImagePinpoint":"","urlImageBaloon":""},"codiceStazione":"S06350","codStazione":"S06350","lat":43.855652,"lon":10.352022,"latMappaCitta":0.0,"lonMappaCitta":0.0,"localita":{"nomeLungo":"MASSAROSA BOZZANO","nomeBreve":"Massarosa Bozzan","label":"","id":"S06350"},"esterno":false,"offsetX":0,"offsetY":0,"nomeCitta":"A"},{"codReg":13,"tipoStazione":3,"dettZoomStaz":[],"pstaz":[],"mappaCitta":{"urlImagePinpoint":"","urlImageBaloon":""},"codiceStazione":"S06400","codStazione":"S06400","lat":43.764895,"lon":10.436892,"latMappaCitta":0.0,"lonMappaCitta":0.0,"localita":{"nomeLungo":"S.GIULIANO TERME","nomeBreve":"S.Giuliano Terme","label":"","id":"S06400"},"esterno":false,"offsetX":0,"offsetY":0,"nomeCitta":"A"},{"codReg":13,"tipoStazione":3,"dettZoomStaz":[],"pstaz":[],"mappaCitta":{"urlImagePinpoint":"","urlImageBaloon":""},"codiceStazione":"S06405","codStazione":"S06405","lat":43.834131,"lon":10.570495,"latMappaCitta":0.0,"lonMappaCitta":0.0,"localita":{"nomeLungo":"TASSIGNANO","nomeBreve":"Tassignano","label":"","id":"S06405"},"esterno":false,"offsetX":0,"offsetY":0,"nomeCitta":"A"},{"codReg":13,"tipoStazione":3,"dettZoomStaz":[],"pstaz":[],"mappaCitta":{"urlImagePinpoint":"","urlImageBaloon":""},"codiceStazione":"S06410","codStazione":"S06410","lat":43.880724,"lon":10.730079,"latMappaCitta":0.0,"lonMappaCitta":0.0,"localita":{"nomeLungo":"BORGO A BUGGIANO","nomeBreve":"Borgo a Buggiano","label":"","id":"S06410"},"esterno":false,"offsetX":0,"offsetY":0,"nomeCitta":"A"},{"codReg":13,"tipoStazione":3,"dettZoomStaz":[],"pstaz":[],"mappaCitta":{"urlImagePinpoint":"","urlImageBaloon":""},"codiceStazione":"S06411","codStazione":"S06411","lat":43.879327,"lon":10.780588,"latMappaCitta":0.0,"lonMappaCitta":0.0,"localita":{"nomeLungo":"MONTECATINI TERME","nomeBreve":"Montecatini T.","label":"","id":"S06411"},"esterno":false,"offsetX":0,"offsetY":0,"nomeCitta":"A"},{"codReg":13,"tipoStazione":3,"dettZoomStaz":[],"pstaz":[],"mappaCitta":{"urlImagePinpoint":"","urlImageBaloon":""},"codiceStazione":"S06420","codStazione":"S06420","lat":43.800873,"lon":11.235729,"latMappaCitta":0.0,"lonMappaCitta":0.0,"localita":{"nomeLungo":"FIRENZE RIFREDI","nomeBreve":"Firenze Rifredi","label":"","id":"S06420"},"esterno":false,"offsetX":0,"offsetY":0,"nomeCitta":"A"},{"codReg":13,"tipoStazione":3,"dettZoomStaz":[],"pstaz":[],"mappaCitta":{"urlImagePinpoint":"","urlImageBaloon":""},"codiceStazione":"S06422","codStazione":"S06422","lat":43.884637,"lon":11.097385,"latMappaCitta":0.0,"lonMappaCitta":0.0,"localita":{"nomeLungo":"PRATO PORTA AL SERRAGLIO","nomeBreve":"Prato P.Serragl.","label":"","id":"S06422"},"esterno":false,"offsetX":0,"offsetY":0,"nomeCitta":"A"},{"codReg":13,"tipoStazione":3,"dettZoomStaz":[],"pstaz":[],"mappaCitta":{"urlImagePinpoint":"","urlImageBaloon":""},"codiceStazione":"S06506","codStazione":"S06506","lat":43.662145,"lon":10.628773,"latMappaCitta":0.0,"lonMappaCitta":0.0,"localita":{"nomeLungo":"PONTEDERA CASCIANA TERME","nomeBreve":"Pontedera C.T.","label":"","id":"S06506"},"esterno":false,"offsetX":0,"offsetY":0,"nomeCitta":"A"},{"codReg":13,"tipoStazione":3,"dettZoomStaz":[],"pstaz":[],"mappaCitta":{"urlImagePinpoint":"","urlImageBaloon":""},"codiceStazione":"S06511","codStazione":"S06511","lat":43.733357,"lon":11.018997,"latMappaCitta":0.0,"lonMappaCitta":0.0,"localita":{"nomeLungo":"MONTELUPO CAPRAIA","nomeBreve":"Montelupo","label":"","id":"S06511"},"esterno":false,"offsetX":0,"offsetY":0,"nomeCitta":"A"},{"codReg":13,"tipoStazione":3,"dettZoomStaz":[{"codiceStazione":"S06725","zoomStartRange":8,"zoomStopRange":9,"pinpointVisibile":true,"pinpointVisible":true,"labelVisibile":true,"labelVisible":true,"codiceRegione":null},{"codiceStazione":"S06725","zoomStartRange":10,"zoomStopRange":11,"pinpointVisibile":true,"pinpointVisible":true,"labelVisibile":true,"labelVisible":true,"codiceRegione":null}],"pstaz":[],"mappaCitta":{"urlImagePinpoint":"","urlImageBaloon":""},"codiceStazione":"S06725","codStazione":"S06725","lat":43.55406,"lon":10.336593,"latMappaCitta":0.0,"lonMappaCitta":0.0,"localita":{"nomeLungo":"LIVORNO CENTRALE","nomeBreve":"Livorno C.le","label":"Livorno","id":"S06725"},"esterno":false,"offsetX":45,"offsetY":0,"nomeCitta":"Livorno"},{"codReg":13,"tipoStazione":3,"dettZoomStaz":[],"pstaz":[],"mappaCitta":{"urlImagePinpoint":"","urlImageBaloon":""},"codiceStazione":"S06773","codStazione":"S06773","lat":42.996412,"lon":10.540659,"latMappaCitta":0.0,"lonMappaCitta":0.0,"localita":{"nomeLungo":"POPULONIA","nomeBreve":"Populonia","label":"","id":"S06773"},"esterno":false,"offsetX":0,"offsetY":0,"nomeCitta":"A"},{"codReg":13,"tipoStazione":3,"dettZoomStaz":[],"pstaz":[],"mappaCitta":{"urlImagePinpoint":"","urlImageBaloon":""},"codiceStazione":"S06774","codStazione":"S06774","lat":42.969321,"lon":10.54235,"latMappaCitta":0.0,"lonMappaCitta":0.0,"localita":{"nomeLungo":"FIORENTINA DI PIOMBINO","nomeBreve":"Fiorentina P.","label":"","id":"S06774"},"esterno":false,"offsetX":0,"offsetY":0,"nomeCitta":"A"},{"codReg":13,"tipoStazione":3,"dettZoomStaz":[],"pstaz":[],"mappaCitta":{"urlImagePinpoint":"","urlImageBaloon":""},"codiceStazione":"S06802","codStazione":"S06802","lat":43.60542,"lon":10.968048,"latMappaCitta":0.0,"lonMappaCitta":0.0,"localita":{"nomeLungo":"CASTELFIORENTINO","nomeBreve":"Castelfiorentino","label":"","id":"S06802"},"esterno":false,"offsetX":0,"offsetY":0,"nomeCitta":"A"},{"codReg":13,"tipoStazione":3,"dettZoomStaz":[],"pstaz":[],"mappaCitta":{"urlImagePinpoint":"","urlImageBaloon":""},"codiceStazione":"S06812","codStazione":"S06812","lat":43.306882,"lon":11.484912,"latMappaCitta":0.0,"lonMappaCitta":0.0,"localita":{"nomeLungo":"CASTELNUOVO BERARDENGA","nomeBreve":"Castelnuovo Ber.","label":"","id":"S06812"},"esterno":false,"offsetX":0,"offsetY":0,"nomeCitta":"A"},{"codReg":13,"tipoStazione":3,"dettZoomStaz":[],"pstaz":[],"mappaCitta":{"urlImagePinpoint":"","urlImageBaloon":""},"codiceStazione":"S06816","codStazione":"S06816","lat":43.153292,"lon":11.593803,"latMappaCitta":0.0,"lonMappaCitta":0.0,"localita":{"nomeLungo":"S.GIOVANNI D`ASSO","nomeBreve":"S.Giovanni d'As.","label":"","id":"S06816"},"esterno":false,"offsetX":0,"offsetY":0,"nomeCitta":"A"},{"codReg":13,"tipoStazione":3,"dettZoomStaz":[],"pstaz":[],"mappaCitta":{"urlImagePinpoint":"","urlImageBaloon":""},"codiceStazione":"S06823","codStazione":"S06823","lat":42.957631,"lon":11.192942,"latMappaCitta":0.0,"lonMappaCitta":0.0,"localita":{"nomeLungo":"ROCCASTRADA","nomeBreve":"Roccastrada","label":"","id":"S06823"},"esterno":false,"offsetX":0,"offsetY":0,"nomeCitta":"A"},{"codReg":13,"tipoStazione":3,"dettZoomStaz":[],"pstaz":[],"mappaCitta":{"urlImagePinpoint":"","urlImageBaloon":""},"codiceStazione":"S06854","codStazione":"S06854","lat":43.174187,"lon":11.78758,"latMappaCitta":0.0,"lonMappaCitta":0.0,"localita":{"nomeLungo":"TORRITA DI SIENA","nomeBreve":"Torrita di Siena","label":"","id":"S06854"},"esterno":false,"offsetX":0,"offsetY":0,"nomeCitta":"A"},{"codReg":13,"tipoStazione":3,"dettZoomStaz":[],"pstaz":[],"mappaCitta":{"urlImagePinpoint":"","urlImageBaloon":""},"codiceStazione":"S06857","codStazione":"S06857","lat":43.284347,"lon":11.558209,"latMappaCitta":0.0,"lonMappaCitta":0.0,"localita":{"nomeLungo":"SERRE DI RAPOLANO","nomeBreve":"Serre di Rapol.","label":"","id":"S06857"},"esterno":false,"offsetX":0,"offsetY":0,"nomeCitta":"A"},{"codReg":13,"tipoStazione":3,"dettZoomStaz":[],"pstaz":[],"mappaCitta":{"urlImagePinpoint":"","urlImageBaloon":""},"codiceStazione":"S06867","codStazione":"S06867","lat":43.26528,"lon":11.376652,"latMappaCitta":0.0,"lonMappaCitta":0.0,"localita":{"nomeLungo":"SIENA ZONA INDUSTRIALE","nomeBreve":"Siena Zona Ind.","label":"","id":"S06867"},"esterno":false,"offsetX":0,"offsetY":0,"nomeCitta":"A"},{"codReg":13,"tipoStazione":3,"dettZoomStaz":[],"pstaz":[],"mappaCitta":{"urlImagePinpoint":"","urlImageBaloon":""},"codiceStazione":"S06871","codStazione":"S06871","lat":43.230036,"lon":11.419662,"latMappaCitta":0.0,"lonMappaCitta":0.0,"localita":{"nomeLungo":"MONTERONI D`ARBIA","nomeBreve":"Monteroni d'Arb.","label":"","id":"S06871"},"esterno":false,"offsetX":0,"offsetY":0,"nomeCitta":"A"},{"codReg":13,"tipoStazione":3,"dettZoomStaz":[],"pstaz":[],"mappaCitta":{"urlImagePinpoint":"","urlImageBaloon":""},"codiceStazione":"S06874","codStazione":"S06874","lat":43.135503,"lon":11.483773,"latMappaCitta":0.0,"lonMappaCitta":0.0,"localita":{"nomeLungo":"BUONCONVENTO","nomeBreve":"Buonconvento","label":"","id":"S06874"},"esterno":false,"offsetX":0,"offsetY":0,"nomeCitta":"A"},{"codReg":13,"tipoStazione":3,"dettZoomStaz":[{"codiceStazione":"S06901","zoomStartRange":8,"zoomStopRange":9,"pinpointVisibile":true,"pinpointVisible":true,"labelVisibile":false,"labelVisible":false,"codiceRegione":null},{"codiceStazione":"S06901","zoomStartRange":10,"zoomStopRange":11,"pinpointVisibile":true,"pinpointVisible":true,"labelVisibile":true,"labelVisible":true,"codiceRegione":null}],"pstaz":[],"mappaCitta":{"urlImagePinpoint":"","urlImageBaloon":""},"codiceStazione":"S06901","codStazione":"S06901","lat":43.768657,"lon":11.307372,"latMappaCitta":0.0,"lonMappaCitta":0.0,"localita":{"nomeLungo":"FI ROVEZZANO","nomeBreve":"FI Rovezzano","label":"Rovezzano","id":"S06901"},"esterno":false,"offsetX":35,"offsetY":20,"nomeCitta":"Fi Rovezzano"},{"codReg":13,"tipoStazione":3,"dettZoomStaz":[],"pstaz":[],"mappaCitta":{"urlImagePinpoint":"","urlImageBaloon":""},"codiceStazione":"S06013","codStazione":"S06013","lat":44.210555,"lon":9.970015,"latMappaCitta":0.0,"lonMappaCitta":0.0,"localita":{"nomeLungo":"AULLA LUNIGIANA","nomeBreve":"Aulla Lunigiana","label":"","id":"S06013"},"esterno":false,"offsetX":0,"offsetY":0,"nomeCitta":"A"},{"codReg":13,"tipoStazione":3,"dettZoomStaz":[{"codiceStazione":"S06753","zoomStartRange":8,"zoomStopRange":9,"pinpointVisibile":true,"pinpointVisible":true,"labelVisibile":false,"labelVisible":false,"codiceRegione":null},{"codiceStazione":"S06753","zoomStartRange":10,"zoomStopRange":11,"pinpointVisibile":true,"pinpointVisible":true,"labelVisibile":true,"labelVisible":true,"codiceRegione":null}],"pstaz":[],"mappaCitta":{"urlImagePinpoint":"","urlImageBaloon":""},"codiceStazione":"S06753","codStazione":"S06753","lat":43.35962,"lon":10.808269,"latMappaCitta":0.0,"lonMappaCitta":0.0,"localita":{"nomeLungo":"VOLTERRA SALINE - POMARANCE","nomeBreve":"Volterra Saline","label":"","id":"S06753"},"esterno":false,"offsetX":0,"offsetY":0,"nomeCitta":"Volterra Saline"},{"codReg":13,"tipoStazione":3,"dettZoomStaz":[{"codiceStazione":"S06031","zoomStartRange":8,"zoomStopRange":9,"pinpointVisibile":true,"pinpointVisible":true,"labelVisibile":false,"labelVisible":false,"codiceRegione":null},{"codiceStazione":"S06031","zoomStartRange":10,"zoomStopRange":11,"pinpointVisibile":true,"pinpointVisible":true,"labelVisibile":true,"labelVisible":true,"codiceRegione":null}],"pstaz":[],"mappaCitta":{"urlImagePinpoint":"","urlImageBaloon":""},"codiceStazione":"S06031","codStazione":"S06031","lat":43.017118,"lon":10.586558,"latMappaCitta":0.0,"lonMappaCitta":0.0,"localita":{"nomeLungo":"CAMPIGLIA MARITTIMA","nomeBreve":"Campiglia M.ma","label":"","id":"S06031"},"esterno":false,"offsetX":-4,"offsetY":10,"nomeCitta":"Campiglia Maritt."},{"codReg":13,"tipoStazione":3,"dettZoomStaz":[],"pstaz":[],"mappaCitta":{"urlImagePinpoint":"","urlImageBaloon":""},"codiceStazione":"S06324","codStazione":"S06324","lat":44.161448,"lon":10.334849,"latMappaCitta":0.0,"lonMappaCitta":0.0,"localita":{"nomeLungo":"CAMPORGIANO","nomeBreve":"Camporgiano","label":"","id":"S06324"},"esterno":false,"offsetX":0,"offsetY":0,"nomeCitta":"A"},{"codReg":13,"tipoStazione":3,"dettZoomStaz":[],"pstaz":[],"mappaCitta":{"urlImagePinpoint":"","urlImageBaloon":""},"codiceStazione":"S06772","codStazione":"S06772","lat":42.931641,"lon":10.539901,"latMappaCitta":0.0,"lonMappaCitta":0.0,"localita":{"nomeLungo":"PIOMBINO BINARI PORTO VECCHIO","nomeBreve":"Piomb.bin.P.V.","label":"","id":"S06772"},"esterno":false,"offsetX":0,"offsetY":0,"nomeCitta":"A"},{"codReg":13,"tipoStazione":3,"dettZoomStaz":[],"pstaz":[],"mappaCitta":{"urlImagePinpoint":"","urlImageBaloon":""},"codiceStazione":"S05113","codStazione":"S05113","lat":44.05479,"lon":10.90691,"latMappaCitta":0.0,"lonMappaCitta":0.0,"localita":{"nomeLungo":"PRACCHIA","nomeBreve":"Pracchia","label":"","id":"S05113"},"esterno":false,"offsetX":0,"offsetY":0,"nomeCitta":"A"},{"codReg":13,"tipoStazione":3,"dettZoomStaz":[],"pstaz":[],"mappaCitta":{"urlImagePinpoint":"","urlImageBaloon":""},"codiceStazione":"S06423","codStazione":"S06423","lat":43.849273,"lon":11.162008,"latMappaCitta":0.0,"lonMappaCitta":0.0,"localita":{"nomeLungo":"PRATIGNONE","nomeBreve":"Pratignone","label":"","id":"S06423"},"esterno":false,"offsetX":0,"offsetY":0,"nomeCitta":"A"},{"codReg":13,"tipoStazione":3,"dettZoomStaz":[{"codiceStazione":"S06416","zoomStartRange":8,"zoomStopRange":9,"pinpointVisibile":true,"pinpointVisible":true,"labelVisibile":true,"labelVisible":true,"codiceRegione":null},{"codiceStazione":"S06416","zoomStartRange":10,"zoomStopRange":11,"pinpointVisibile":true,"pinpointVisible":true,"labelVisibile":true,"labelVisible":true,"codiceRegione":null}],"pstaz":[],"mappaCitta":{"urlImagePinpoint":"","urlImageBaloon":""},"codiceStazione":"S06416","codStazione":"S06416","lat":43.878737,"lon":11.109252,"latMappaCitta":0.0,"lonMappaCitta":0.0,"localita":{"nomeLungo":"PRATO CENTRALE","nomeBreve":"Prato C.Le","label":"Prato","id":"S06416"},"esterno":false,"offsetX":-4,"offsetY":18,"nomeCitta":"Prato"},{"codReg":13,"tipoStazione":3,"dettZoomStaz":[],"pstaz":[],"mappaCitta":{"urlImagePinpoint":"","urlImageBaloon":""},"codiceStazione":"S06728","codStazione":"S06728","lat":43.454922,"lon":10.37255,"latMappaCitta":0.0,"lonMappaCitta":0.0,"localita":{"nomeLungo":"QUERCIANELLA","nomeBreve":"Quercianella","label":"","id":"S06728"},"esterno":false,"offsetX":0,"offsetY":0,"nomeCitta":"A"},{"codReg":13,"tipoStazione":3,"dettZoomStaz":[],"pstaz":[],"mappaCitta":{"urlImagePinpoint":"","urlImageBaloon":""},"codiceStazione":"S06850","codStazione":"S06850","lat":43.283331,"lon":11.602504,"latMappaCitta":0.0,"lonMappaCitta":0.0,"localita":{"nomeLungo":"RAPOLANO TERME","nomeBreve":"Rapolano Terme","label":"","id":"S06850"},"esterno":false,"offsetX":0,"offsetY":0,"nomeCitta":"A"},{"codReg":13,"tipoStazione":3,"dettZoomStaz":[],"pstaz":[],"mappaCitta":{"urlImagePinpoint":"","urlImageBaloon":""},"codiceStazione":"S06401","codStazione":"S06401","lat":43.789681,"lon":10.419663,"latMappaCitta":0.0,"lonMappaCitta":0.0,"localita":{"nomeLungo":"RIGOLI","nomeBreve":"Rigoli","label":"","id":"S06401"},"esterno":false,"offsetX":0,"offsetY":0,"nomeCitta":"A"},{"codReg":13,"tipoStazione":3,"dettZoomStaz":[],"pstaz":[],"mappaCitta":{"urlImagePinpoint":"","urlImageBaloon":""},"codiceStazione":"S06851","codStazione":"S06851","lat":43.256767,"lon":11.706492,"latMappaCitta":0.0,"lonMappaCitta":0.0,"localita":{"nomeLungo":"RIGOMAGNO","nomeBreve":"Rigomagno","label":"","id":"S06851"},"esterno":false,"offsetX":0,"offsetY":0,"nomeCitta":"A"},{"codReg":13,"tipoStazione":3,"dettZoomStaz":[],"pstaz":[],"mappaCitta":{"urlImagePinpoint":"","urlImageBaloon":""},"codiceStazione":"S06750","codStazione":"S06750","lat":43.339461,"lon":10.582184,"latMappaCitta":0.0,"lonMappaCitta":0.0,"localita":{"nomeLungo":"RIPARBELLA","nomeBreve":"Riparbella","label":"","id":"S06750"},"esterno":false,"offsetX":0,"offsetY":0,"nomeCitta":"A"},{"codReg":13,"tipoStazione":3,"dettZoomStaz":[],"pstaz":[],"mappaCitta":{"urlImagePinpoint":"","urlImageBaloon":""},"codiceStazione":"S06606","codStazione":"S06606","lat":44.009432,"lon":11.434125,"latMappaCitta":0.0,"lonMappaCitta":0.0,"localita":{"nomeLungo":"RONTA","nomeBreve":"Ronta","label":"","id":"S06606"},"esterno":false,"offsetX":0,"offsetY":0,"nomeCitta":"A"},{"codReg":13,"tipoStazione":3,"dettZoomStaz":[],"pstaz":[],"mappaCitta":{"urlImagePinpoint":"","urlImageBaloon":""},"codiceStazione":"S06730","codStazione":"S06730","lat":43.387899,"lon":10.438041,"latMappaCitta":0.0,"lonMappaCitta":0.0,"localita":{"nomeLungo":"ROSIGNANO","nomeBreve":"Rosignano","label":"","id":"S06730"},"esterno":false,"offsetX":0,"offsetY":0,"nomeCitta":"A"},{"codReg":13,"tipoStazione":3,"dettZoomStaz":[],"pstaz":[],"mappaCitta":{"urlImagePinpoint":"","urlImageBaloon":""},"codiceStazione":"S06703","codStazione":"S06703","lat":43.822236,"lon":11.485072,"latMappaCitta":0.0,"lonMappaCitta":0.0,"localita":{"nomeLungo":"RUFINA","nomeBreve":"Rufina","label":"","id":"S06703"},"esterno":false,"offsetX":0,"offsetY":0,"nomeCitta":"A"},{"codReg":13,"tipoStazione":4,"dettZoomStaz":[{"codiceStazione":"S05134","zoomStartRange":8,"zoomStopRange":9,"pinpointVisibile":true,"pinpointVisible":true,"labelVisibile":true,"labelVisible":true,"codiceRegione":null},{"codiceStazione":"S05134","zoomStartRange":10,"zoomStopRange":11,"pinpointVisibile":true,"pinpointVisible":true,"labelVisibile":true,"labelVisible":true,"codiceRegione":null}],"pstaz":[],"mappaCitta":{"urlImagePinpoint":"","urlImageBaloon":""},"codiceStazione":"S05134","codStazione":"S05134","lat":44.22866,"lon":11.19226,"latMappaCitta":0.0,"lonMappaCitta":0.0,"localita":{"nomeLungo":"SAN BENEDETTO SAMBRO-CAST.PEPOLI","nomeBreve":"S.Benedetto SCP","label":"","id":"S05134"},"esterno":true,"offsetX":-4,"offsetY":10,"nomeCitta":"San Benedetto Sambro-Castiglione Pepoli"},{"codReg":13,"tipoStazione":4,"dettZoomStaz":[{"codiceStazione":"S07004","zoomStartRange":8,"zoomStopRange":9,"pinpointVisibile":true,"pinpointVisible":true,"labelVisibile":true,"labelVisible":true,"codiceRegione":null},{"codiceStazione":"S07004","zoomStartRange":10,"zoomStopRange":11,"pinpointVisibile":true,"pinpointVisible":true,"labelVisibile":true,"labelVisible":true,"codiceRegione":null}],"pstaz":[],"mappaCitta":{"urlImagePinpoint":"","urlImageBaloon":""},"codiceStazione":"S07004","codStazione":"S07004","lat":43.103808,"lon":12.375567,"latMappaCitta":0.0,"lonMappaCitta":0.0,"localita":{"nomeLungo":"PERUGIA","nomeBreve":"Perugia","label":"Perugia","id":"S07004"},"esterno":true,"offsetX":-4,"offsetY":10,"nomeCitta":"Perugia"},{"codReg":13,"tipoStazione":3,"dettZoomStaz":[],"pstaz":[],"mappaCitta":{"urlImagePinpoint":"","urlImageBaloon":""},"codiceStazione":"S06325","codStazione":"S06325","lat":44.182515,"lon":10.296615,"latMappaCitta":0.0,"lonMappaCitta":0.0,"localita":{"nomeLungo":"PIAZZA AL SERCHIO","nomeBreve":"Piazza al Serch.","label":"","id":"S06325"},"esterno":false,"offsetX":0,"offsetY":0,"nomeCitta":"A"},{"codReg":13,"tipoStazione":3,"dettZoomStaz":[],"pstaz":[],"mappaCitta":{"urlImagePinpoint":"","urlImageBaloon":""},"codiceStazione":"S06012","codStazione":"S06012","lat":43.95583,"lon":10.229731,"latMappaCitta":0.0,"lonMappaCitta":0.0,"localita":{"nomeLungo":"PIETRASANTA","nomeBreve":"Pietrasanta","label":"","id":"S06012"},"esterno":false,"offsetX":0,"offsetY":0,"nomeCitta":"A"},{"codReg":13,"tipoStazione":3,"dettZoomStaz":[],"pstaz":[],"mappaCitta":{"urlImagePinpoint":"","urlImageBaloon":""},"codiceStazione":"S06770","codStazione":"S06770","lat":42.924854,"lon":10.530959,"latMappaCitta":0.0,"lonMappaCitta":0.0,"localita":{"nomeLungo":"PIOMBINO","nomeBreve":"Piombino","label":"","id":"S06770"},"esterno":false,"offsetX":0,"offsetY":0,"nomeCitta":"A"},{"codReg":13,"tipoStazione":3,"dettZoomStaz":[{"codiceStazione":"S06775","zoomStartRange":8,"zoomStopRange":9,"pinpointVisibile":true,"pinpointVisible":true,"labelVisibile":false,"labelVisible":false,"codiceRegione":null},{"codiceStazione":"S06775","zoomStartRange":10,"zoomStopRange":11,"pinpointVisibile":true,"pinpointVisible":true,"labelVisibile":true,"labelVisible":true,"codiceRegione":null}],"pstaz":[],"mappaCitta":{"urlImagePinpoint":"","urlImageBaloon":""},"codiceStazione":"S06775","codStazione":"S06775","lat":42.928931,"lon":10.54525,"latMappaCitta":0.0,"lonMappaCitta":0.0,"localita":{"nomeLungo":"PIOMBINO BINARI MARE","nomeBreve":"Piomb.bin.Mare","label":"","id":"S06775"},"esterno":false,"offsetX":120,"offsetY":0,"nomeCitta":"Piombino bin.Mare"},{"codReg":13,"tipoStazione":3,"dettZoomStaz":[],"pstaz":[],"mappaCitta":{"urlImagePinpoint":"","urlImageBaloon":""},"codiceStazione":"S06450","codStazione":"S06450","lat":43.698555,"lon":10.398436,"latMappaCitta":0.0,"lonMappaCitta":0.0,"localita":{"nomeLungo":"PISA BINARI AEROPORTO","nomeBreve":"Pisa Bin.Aerop.","label":"","id":"S06450"},"esterno":false,"offsetX":0,"offsetY":0,"nomeCitta":"A"},{"codReg":13,"tipoStazione":1,"dettZoomStaz":[{"codiceStazione":"S06500","zoomStartRange":8,"zoomStopRange":9,"pinpointVisibile":true,"pinpointVisible":true,"labelVisibile":true,"labelVisible":true,"codiceRegione":null},{"codiceStazione":"S06500","zoomStartRange":10,"zoomStopRange":11,"pinpointVisibile":true,"pinpointVisible":true,"labelVisibile":true,"labelVisible":true,"codiceRegione":null}],"pstaz":[],"mappaCitta":{"urlImagePinpoint":"","urlImageBaloon":""},"codiceStazione":"S06500","codStazione":"S06500","lat":43.70794,"lon":10.398183,"latMappaCitta":0.0,"lonMappaCitta":0.0,"localita":{"nomeLungo":"PISA CENTRALE","nomeBreve":"Pisa Centrale","label":"Pisa","id":"S06500"},"esterno":false,"offsetX":-4,"offsetY":18,"nomeCitta":"Pisa"},{"codReg":13,"tipoStazione":3,"dettZoomStaz":[{"codiceStazione":"S06501","zoomStartRange":8,"zoomStopRange":9,"pinpointVisibile":true,"pinpointVisible":true,"labelVisibile":false,"labelVisible":false,"codiceRegione":null},{"codiceStazione":"S06501","zoomStartRange":10,"zoomStopRange":11,"pinpointVisibile":true,"pinpointVisible":true,"labelVisibile":true,"labelVisible":true,"codiceRegione":null}],"pstaz":[],"mappaCitta":{"urlImagePinpoint":"","urlImageBaloon":""},"codiceStazione":"S06501","codStazione":"S06501","lat":43.723702,"lon":10.387363,"latMappaCitta":0.0,"lonMappaCitta":0.0,"localita":{"nomeLungo":"PISA SAN ROSSORE","nomeBreve":"Pisa S.Rossore","label":"","id":"S06501"},"esterno":false,"offsetX":93,"offsetY":20,"nomeCitta":"Pisa S.Rossore"},{"codReg":13,"tipoStazione":3,"dettZoomStaz":[{"codiceStazione":"S06414","zoomStartRange":8,"zoomStopRange":9,"pinpointVisibile":true,"pinpointVisible":true,"labelVisibile":true,"labelVisible":true,"codiceRegione":null},{"codiceStazione":"S06414","zoomStartRange":10,"zoomStopRange":11,"pinpointVisibile":true,"pinpointVisible":true,"labelVisibile":true,"labelVisible":true,"codiceRegione":null}],"pstaz":[],"mappaCitta":{"urlImagePinpoint":"","urlImageBaloon":""},"codiceStazione":"S06414","codStazione":"S06414","lat":43.926804,"lon":10.914624,"latMappaCitta":0.0,"lonMappaCitta":0.0,"localita":{"nomeLungo":"PISTOIA","nomeBreve":"Pistoia","label":"Pistoia","id":"S06414"},"esterno":false,"offsetX":45,"offsetY":18,"nomeCitta":"Pistoia"},{"codReg":13,"tipoStazione":3,"dettZoomStaz":[],"pstaz":[],"mappaCitta":{"urlImagePinpoint":"","urlImageBaloon":""},"codiceStazione":"S06415","codStazione":"S06415","lat":43.912924,"lon":11.008309,"latMappaCitta":0.0,"lonMappaCitta":0.0,"localita":{"nomeLungo":"MONTALE AGLIANA","nomeBreve":"Montale Agliana","label":"","id":"S06415"},"esterno":false,"offsetX":0,"offsetY":0,"nomeCitta":"A"},{"codReg":13,"tipoStazione":3,"dettZoomStaz":[{"codiceStazione":"S06856","zoomStartRange":8,"zoomStopRange":9,"pinpointVisibile":true,"pinpointVisible":true,"labelVisibile":false,"labelVisible":false,"codiceRegione":null},{"codiceStazione":"S06856","zoomStartRange":10,"zoomStopRange":11,"pinpointVisibile":true,"pinpointVisible":true,"labelVisibile":true,"labelVisible":true,"codiceRegione":null}],"pstaz":[],"mappaCitta":{"urlImagePinpoint":"","urlImageBaloon":""},"codiceStazione":"S06856","codStazione":"S06856","lat":43.064888,"lon":11.90928,"latMappaCitta":0.0,"lonMappaCitta":0.0,"localita":{"nomeLungo":"MONTALLESE","nomeBreve":"Montallese","label":"","id":"S06856"},"esterno":false,"offsetX":63,"offsetY":20,"nomeCitta":"Montallese"},{"codReg":13,"tipoStazione":3,"dettZoomStaz":[{"codiceStazione":"S06820","zoomStartRange":8,"zoomStopRange":9,"pinpointVisibile":true,"pinpointVisible":true,"labelVisibile":false,"labelVisible":false,"codiceRegione":null},{"codiceStazione":"S06820","zoomStartRange":10,"zoomStopRange":11,"pinpointVisibile":true,"pinpointVisible":true,"labelVisibile":true,"labelVisible":true,"codiceRegione":null}],"pstaz":[],"mappaCitta":{"urlImagePinpoint":"","urlImageBaloon":""},"codiceStazione":"S06820","codStazione":"S06820","lat":42.981054,"lon":11.359819,"latMappaCitta":0.0,"lonMappaCitta":0.0,"localita":{"nomeLungo":"MONTE ANTICO","nomeBreve":"Monte Antico","label":"","id":"S06820"},"esterno":false,"offsetX":0,"offsetY":0,"nomeCitta":"Monte Antico"},{"codReg":13,"tipoStazione":3,"dettZoomStaz":[],"pstaz":[],"mappaCitta":{"urlImagePinpoint":"","urlImageBaloon":""},"codiceStazione":"S06408","codStazione":"S06408","lat":43.850798,"lon":10.68537,"latMappaCitta":0.0,"lonMappaCitta":0.0,"localita":{"nomeLungo":"MONTECARLO SAN SALVATORE","nomeBreve":"Montecarlo S.Sal","label":"","id":"S06408"},"esterno":false,"offsetX":0,"offsetY":0,"nomeCitta":"A"},{"codReg":13,"tipoStazione":3,"dettZoomStaz":[],"pstaz":[],"mappaCitta":{"urlImagePinpoint":"","urlImageBaloon":""},"codiceStazione":"S06412","codStazione":"S06412","lat":43.881216,"lon":10.77081,"latMappaCitta":0.0,"lonMappaCitta":0.0,"localita":{"nomeLungo":"MONTECATINI CENTRO","nomeBreve":"Montecatini C.","label":"","id":"S06412"},"esterno":false,"offsetX":0,"offsetY":0,"nomeCitta":"A"},{"codReg":13,"tipoStazione":3,"dettZoomStaz":[{"codiceStazione":"S06038","zoomStartRange":8,"zoomStopRange":9,"pinpointVisibile":true,"pinpointVisible":true,"labelVisibile":false,"labelVisible":false,"codiceRegione":null},{"codiceStazione":"S06038","zoomStartRange":10,"zoomStopRange":11,"pinpointVisibile":true,"pinpointVisible":true,"labelVisibile":true,"labelVisible":true,"codiceRegione":null}],"pstaz":[],"mappaCitta":{"urlImagePinpoint":"","urlImageBaloon":""},"codiceStazione":"S06038","codStazione":"S06038","lat":42.869518,"lon":11.068743,"latMappaCitta":0.0,"lonMappaCitta":0.0,"localita":{"nomeLungo":"MONTEPESCALI","nomeBreve":"Montepescali","label":"","id":"S06038"},"esterno":false,"offsetX":0,"offsetY":0,"nomeCitta":"Montepescali"},{"codReg":13,"tipoStazione":3,"dettZoomStaz":[],"pstaz":[],"mappaCitta":{"urlImagePinpoint":"","urlImageBaloon":""},"codiceStazione":"S06855","codStazione":"S06855","lat":43.135353,"lon":11.856865,"latMappaCitta":0.0,"lonMappaCitta":0.0,"localita":{"nomeLungo":"MONTEPULCIANO","nomeBreve":"Montepulciano","label":"","id":"S06855"},"esterno":false,"offsetX":0,"offsetY":0,"nomeCitta":"A"},{"codReg":13,"tipoStazione":3,"dettZoomStaz":[],"pstaz":[],"mappaCitta":{"urlImagePinpoint":"","urlImageBaloon":""},"codiceStazione":"S06301","codStazione":"S06301","lat":44.118559,"lon":10.444212,"latMappaCitta":0.0,"lonMappaCitta":0.0,"localita":{"nomeLungo":"FOSCIANDORA - CESERANA","nomeBreve":"Fosciandora-Ces.","label":"","id":"S06301"},"esterno":false,"offsetX":0,"offsetY":0,"nomeCitta":"A"},{"codReg":13,"tipoStazione":3,"dettZoomStaz":[],"pstaz":[],"mappaCitta":{"urlImagePinpoint":"","urlImageBaloon":""},"codiceStazione":"S06351","codStazione":"S06351","lat":43.829956,"lon":10.40716,"latMappaCitta":0.0,"lonMappaCitta":0.0,"localita":{"nomeLungo":"NOZZANO","nomeBreve":"Nozzano","label":"","id":"S06351"},"esterno":false,"offsetX":0,"offsetY":0,"nomeCitta":"A"},{"codReg":13,"tipoStazione":3,"dettZoomStaz":[{"codiceStazione":"S08004","zoomStartRange":8,"zoomStopRange":9,"pinpointVisibile":true,"pinpointVisible":true,"labelVisibile":false,"labelVisible":false,"codiceRegione":null},{"codiceStazione":"S08004","zoomStartRange":10,"zoomStopRange":11,"pinpointVisibile":true,"pinpointVisible":true,"labelVisibile":true,"labelVisible":true,"codiceRegione":null}],"pstaz":[],"mappaCitta":{"urlImagePinpoint":"","urlImageBaloon":""},"codiceStazione":"S08004","codStazione":"S08004","lat":42.450615,"lon":11.248972,"latMappaCitta":0.0,"lonMappaCitta":0.0,"localita":{"nomeLungo":"ORBETELLO","nomeBreve":"Orbetello","label":"","id":"S08004"},"esterno":false,"offsetX":-4,"offsetY":18,"nomeCitta":"Orbetello"},{"codReg":13,"tipoStazione":3,"dettZoomStaz":[],"pstaz":[],"mappaCitta":{"urlImagePinpoint":"","urlImageBaloon":""},"codiceStazione":"S06022","codStazione":"S06022","lat":43.500263,"lon":10.477566,"latMappaCitta":0.0,"lonMappaCitta":0.0,"localita":{"nomeLungo":"ORCIANO","nomeBreve":"Orciano","label":"","id":"S06022"},"esterno":false,"offsetX":0,"offsetY":0,"nomeCitta":"A"},{"codReg":13,"tipoStazione":3,"dettZoomStaz":[],"pstaz":[],"mappaCitta":{"urlImagePinpoint":"","urlImageBaloon":""},"codiceStazione":"S06220","codStazione":"S06220","lat":44.204232,"lon":10.005173,"latMappaCitta":0.0,"lonMappaCitta":0.0,"localita":{"nomeLungo":"PALLERONE","nomeBreve":"Pallerone","label":"","id":"S06220"},"esterno":false,"offsetX":0,"offsetY":0,"nomeCitta":"A"},{"codReg":13,"tipoStazione":3,"dettZoomStaz":[],"pstaz":[],"mappaCitta":{"urlImagePinpoint":"","urlImageBaloon":""},"codiceStazione":"S06015","codStazione":"S06015","lat":43.826501,"lon":10.290287,"latMappaCitta":0.0,"lonMappaCitta":0.0,"localita":{"nomeLungo":"TORRE DEL LAGO PUCCINI","nomeBreve":"Torre del Lago","label":"","id":"S06015"},"esterno":false,"offsetX":0,"offsetY":0,"nomeCitta":"A"},{"codReg":13,"tipoStazione":3,"dettZoomStaz":[],"pstaz":[],"mappaCitta":{"urlImagePinpoint":"","urlImageBaloon":""},"codiceStazione":"S06817","codStazione":"S06817","lat":43.086602,"lon":11.552385,"latMappaCitta":0.0,"lonMappaCitta":0.0,"localita":{"nomeLungo":"TORRENIERI","nomeBreve":"Torrenieri","label":"","id":"S06817"},"esterno":false,"offsetX":0,"offsetY":0,"nomeCitta":"A"},{"codReg":13,"tipoStazione":3,"dettZoomStaz":[{"codiceStazione":"S06025","zoomStartRange":8,"zoomStopRange":9,"pinpointVisibile":true,"pinpointVisible":true,"labelVisibile":false,"labelVisible":false,"codiceRegione":null},{"codiceStazione":"S06025","zoomStartRange":10,"zoomStopRange":11,"pinpointVisibile":true,"pinpointVisible":true,"labelVisibile":true,"labelVisible":true,"codiceRegione":null}],"pstaz":[],"mappaCitta":{"urlImagePinpoint":"","urlImageBaloon":""},"codiceStazione":"S06025","codStazione":"S06025","lat":43.352641,"lon":10.470376,"latMappaCitta":0.0,"lonMappaCitta":0.0,"localita":{"nomeLungo":"VADA","nomeBreve":"Vada","label":"","id":"S06025"},"esterno":false,"offsetX":0,"offsetY":0,"nomeCitta":"Vada"},{"codReg":13,"tipoStazione":3,"dettZoomStaz":[],"pstaz":[],"mappaCitta":{"urlImagePinpoint":"","urlImageBaloon":""},"codiceStazione":"S05136","codStazione":"S05136","lat":43.961772,"lon":11.130773,"latMappaCitta":0.0,"lonMappaCitta":0.0,"localita":{"nomeLungo":"VAIANO","nomeBreve":"Vaiano","label":"","id":"S05136"},"esterno":false,"offsetX":0,"offsetY":0,"nomeCitta":"A"},{"codReg":13,"tipoStazione":3,"dettZoomStaz":[],"pstaz":[],"mappaCitta":{"urlImagePinpoint":"","urlImageBaloon":""},"codiceStazione":"S05117","codStazione":"S05117","lat":43.965434,"lon":10.909994,"latMappaCitta":0.0,"lonMappaCitta":0.0,"localita":{"nomeLungo":"VALDIBRANA","nomeBreve":"Valdibrana","label":"","id":"S05117"},"esterno":false,"offsetX":0,"offsetY":0,"nomeCitta":"A"},{"codReg":13,"tipoStazione":3,"dettZoomStaz":[],"pstaz":[],"mappaCitta":{"urlImagePinpoint":"","urlImageBaloon":""},"codiceStazione":"S06702","codStazione":"S06702","lat":43.865124,"lon":11.531603,"latMappaCitta":0.0,"lonMappaCitta":0.0,"localita":{"nomeLungo":"CONTEA LONDA","nomeBreve":"Contea Londa","label":"","id":"S06702"},"esterno":false,"offsetX":0,"offsetY":0,"nomeCitta":"A"},{"codReg":13,"tipoStazione":3,"dettZoomStaz":[{"codiceStazione":"S06404","zoomStartRange":8,"zoomStopRange":9,"pinpointVisibile":true,"pinpointVisible":true,"labelVisibile":true,"labelVisible":true,"codiceRegione":null},{"codiceStazione":"S06404","zoomStartRange":10,"zoomStopRange":11,"pinpointVisibile":true,"pinpointVisible":true,"labelVisibile":true,"labelVisible":true,"codiceRegione":null}],"pstaz":[],"mappaCitta":{"urlImagePinpoint":"","urlImageBaloon":""},"codiceStazione":"S06404","codStazione":"S06404","lat":43.837186,"lon":10.506069,"latMappaCitta":0.0,"lonMappaCitta":0.0,"localita":{"nomeLungo":"LUCCA","nomeBreve":"Lucca","label":"Lucca","id":"S06404"},"esterno":false,"offsetX":0,"offsetY":0,"nomeCitta":"Lucca"},{"codReg":13,"tipoStazione":3,"dettZoomStaz":[{"codiceStazione":"S06610","zoomStartRange":8,"zoomStopRange":9,"pinpointVisibile":true,"pinpointVisible":true,"labelVisibile":false,"labelVisible":false,"codiceRegione":null},{"codiceStazione":"S06610","zoomStartRange":10,"zoomStopRange":11,"pinpointVisibile":true,"pinpointVisible":true,"labelVisibile":true,"labelVisible":true,"codiceRegione":null}],"pstaz":[],"mappaCitta":{"urlImagePinpoint":"","urlImageBaloon":""},"codiceStazione":"S06610","codStazione":"S06610","lat":44.07973,"lon":11.619174,"latMappaCitta":0.0,"lonMappaCitta":0.0,"localita":{"nomeLungo":"MARRADI","nomeBreve":"Marradi","label":"","id":"S06610"},"esterno":false,"offsetX":45,"offsetY":0,"nomeCitta":"Marradi"},{"codReg":13,"tipoStazione":3,"dettZoomStaz":[{"codiceStazione":"S06009","zoomStartRange":8,"zoomStopRange":9,"pinpointVisibile":true,"pinpointVisible":true,"labelVisibile":true,"labelVisible":true,"codiceRegione":null},{"codiceStazione":"S06009","zoomStartRange":10,"zoomStopRange":11,"pinpointVisibile":true,"pinpointVisible":true,"labelVisibile":true,"labelVisible":true,"codiceRegione":null}],"pstaz":[],"mappaCitta":{"urlImagePinpoint":"","urlImageBaloon":""},"codiceStazione":"S06009","codStazione":"S06009","lat":44.023741,"lon":10.136041,"latMappaCitta":0.0,"lonMappaCitta":0.0,"localita":{"nomeLungo":"MASSA CENTRO","nomeBreve":"Massa Centro","label":"Massa","id":"S06009"},"esterno":false,"offsetX":80,"offsetY":20,"nomeCitta":"Massa Centro"},{"codReg":13,"tipoStazione":3,"dettZoomStaz":[],"pstaz":[],"mappaCitta":{"urlImagePinpoint":"","urlImageBaloon":""},"codiceStazione":"S06227","codStazione":"S06227","lat":44.194385,"lon":10.193837,"latMappaCitta":0.0,"lonMappaCitta":0.0,"localita":{"nomeLungo":"MINUCCIANO - PIEVE - CASOLA","nomeBreve":"Minucciano P. C.","label":"","id":"S06227"},"esterno":false,"offsetX":0,"offsetY":0,"nomeCitta":"A"},{"codReg":13,"tipoStazione":3,"dettZoomStaz":[],"pstaz":[],"mappaCitta":{"urlImagePinpoint":"","urlImageBaloon":""},"codiceStazione":"S06426","codStazione":"S06426","lat":43.893216,"lon":11.076222,"latMappaCitta":0.0,"lonMappaCitta":0.0,"localita":{"nomeLungo":"PRATO BORGONUOVO","nomeBreve":"Prato Borgonuovo","label":"","id":"S06426"},"esterno":false,"offsetX":0,"offsetY":0,"nomeCitta":"A"},{"codReg":13,"tipoStazione":3,"dettZoomStaz":[],"pstaz":[],"mappaCitta":{"urlImagePinpoint":"","urlImageBaloon":""},"codiceStazione":"S06701","codStazione":"S06701","lat":43.893489,"lon":11.519148,"latMappaCitta":0.0,"lonMappaCitta":0.0,"localita":{"nomeLungo":"DICOMANO","nomeBreve":"Dicomano","label":"","id":"S06701"},"esterno":false,"offsetX":0,"offsetY":0,"nomeCitta":"A"},{"codReg":13,"tipoStazione":3,"dettZoomStaz":[],"pstaz":[],"mappaCitta":{"urlImagePinpoint":"","urlImageBaloon":""},"codiceStazione":"S06310","codStazione":"S06310","lat":43.959404,"lon":10.507844,"latMappaCitta":0.0,"lonMappaCitta":0.0,"localita":{"nomeLungo":"DIECIMO - PESCAGLIA","nomeBreve":"Diecimo-Pescagl.","label":"","id":"S06310"},"esterno":false,"offsetX":0,"offsetY":0,"nomeCitta":"A"},{"codReg":13,"tipoStazione":3,"dettZoomStaz":[{"codiceStazione":"S06510","zoomStartRange":8,"zoomStopRange":9,"pinpointVisibile":true,"pinpointVisible":true,"labelVisibile":false,"labelVisible":false,"codiceRegione":null},{"codiceStazione":"S06510","zoomStartRange":10,"zoomStopRange":11,"pinpointVisibile":true,"pinpointVisible":true,"labelVisibile":true,"labelVisible":true,"codiceRegione":null}],"pstaz":[],"mappaCitta":{"urlImagePinpoint":"","urlImageBaloon":""},"codiceStazione":"S06510","codStazione":"S06510","lat":43.715708,"lon":10.94915,"latMappaCitta":0.0,"lonMappaCitta":0.0,"localita":{"nomeLungo":"EMPOLI","nomeBreve":"Empoli","label":"","id":"S06510"},"esterno":false,"offsetX":45,"offsetY":18,"nomeCitta":"Empoli"},{"codReg":13,"tipoStazione":4,"dettZoomStaz":[{"codiceStazione":"S05058","zoomStartRange":8,"zoomStopRange":9,"pinpointVisibile":true,"pinpointVisible":true,"labelVisibile":true,"labelVisible":true,"codiceRegione":null},{"codiceStazione":"S05058","zoomStartRange":10,"zoomStopRange":11,"pinpointVisibile":true,"pinpointVisible":true,"labelVisibile":true,"labelVisible":true,"codiceRegione":null}],"pstaz":[],"mappaCitta":{"urlImagePinpoint":"","urlImageBaloon":""},"codiceStazione":"S05058","codStazione":"S05058","lat":44.293594,"lon":11.883268,"latMappaCitta":0.0,"lonMappaCitta":0.0,"localita":{"nomeLungo":"FAENZA","nomeBreve":"Faenza","label":"","id":"S05058"},"esterno":true,"offsetX":-4,"offsetY":18,"nomeCitta":"Faenza"},{"codReg":13,"tipoStazione":3,"dettZoomStaz":[],"pstaz":[],"mappaCitta":{"urlImagePinpoint":"","urlImageBaloon":""},"codiceStazione":"S06303","codStazione":"S06303","lat":44.068114,"lon":10.451938,"latMappaCitta":0.0,"lonMappaCitta":0.0,"localita":{"nomeLungo":"BARGA GALLICANO","nomeBreve":"Barga-Gallicano","label":"","id":"S06303"},"esterno":false,"offsetX":0,"offsetY":0,"nomeCitta":"A"},{"codReg":13,"tipoStazione":3,"dettZoomStaz":[],"pstaz":[],"mappaCitta":{"urlImagePinpoint":"","urlImageBaloon":""},"codiceStazione":"S06502","codStazione":"S06502","lat":43.685941,"lon":10.486806,"latMappaCitta":0.0,"lonMappaCitta":0.0,"localita":{"nomeLungo":"NAVACCHIO","nomeBreve":"Navacchio","label":"","id":"S06502"},"esterno":false,"offsetX":0,"offsetY":0,"nomeCitta":"A"},{"codReg":13,"tipoStazione":3,"dettZoomStaz":[],"pstaz":[],"mappaCitta":{"urlImagePinpoint":"","urlImageBaloon":""},"codiceStazione":"S06409","codStazione":"S06409","lat":43.886811,"lon":10.686074,"latMappaCitta":0.0,"lonMappaCitta":0.0,"localita":{"nomeLungo":"PESCIA","nomeBreve":"Pescia","label":"","id":"S06409"},"esterno":false,"offsetX":0,"offsetY":0,"nomeCitta":"A"},{"codReg":13,"tipoStazione":3,"dettZoomStaz":[],"pstaz":[],"mappaCitta":{"urlImagePinpoint":"","urlImageBaloon":""},"codiceStazione":"S05116","codStazione":"S05116","lat":44.009786,"lon":10.9013,"latMappaCitta":0.0,"lonMappaCitta":0.0,"localita":{"nomeLungo":"PITECCIO","nomeBreve":"Piteccio","label":"","id":"S05116"},"esterno":false,"offsetX":0,"offsetY":0,"nomeCitta":"A"},{"codReg":13,"tipoStazione":3,"dettZoomStaz":[{"codiceStazione":"S06040","zoomStartRange":8,"zoomStopRange":9,"pinpointVisibile":true,"pinpointVisible":true,"labelVisibile":false,"labelVisible":false,"codiceRegione":null},{"codiceStazione":"S06040","zoomStartRange":10,"zoomStopRange":11,"pinpointVisibile":true,"pinpointVisible":true,"labelVisibile":true,"labelVisible":true,"codiceRegione":null}],"pstaz":[],"mappaCitta":{"urlImagePinpoint":"","urlImageBaloon":""},"codiceStazione":"S06040","codStazione":"S06040","lat":43.865947,"lon":10.257886,"latMappaCitta":0.0,"lonMappaCitta":0.0,"localita":{"nomeLungo":"VIAREGGIO","nomeBreve":"Viareggio","label":"","id":"S06040"},"esterno":false,"offsetX":60,"offsetY":0,"nomeCitta":"Viareggio"},{"codReg":13,"tipoStazione":3,"dettZoomStaz":[],"pstaz":[],"mappaCitta":{"urlImagePinpoint":"","urlImageBaloon":""},"codiceStazione":"S06017","codStazione":"S06017","lat":43.609253,"lon":10.460442,"latMappaCitta":0.0,"lonMappaCitta":0.0,"localita":{"nomeLungo":"VICARELLO","nomeBreve":"Vicarello","label":"","id":"S06017"},"esterno":false,"offsetX":0,"offsetY":0,"nomeCitta":"A"},{"codReg":13,"tipoStazione":3,"dettZoomStaz":[],"pstaz":[],"mappaCitta":{"urlImagePinpoint":"","urlImageBaloon":""},"codiceStazione":"S06700","codStazione":"S06700","lat":43.933463,"lon":11.457634,"latMappaCitta":0.0,"lonMappaCitta":0.0,"localita":{"nomeLungo":"VICCHIO","nomeBreve":"Vicchio","label":"","id":"S06700"},"esterno":false,"offsetX":0,"offsetY":0,"nomeCitta":"A"},{"codReg":13,"tipoStazione":3,"dettZoomStaz":[],"pstaz":[],"mappaCitta":{"urlImagePinpoint":"","urlImageBaloon":""},"codiceStazione":"S06032","codStazione":"S06032","lat":42.967587,"lon":10.667255,"latMappaCitta":0.0,"lonMappaCitta":0.0,"localita":{"nomeLungo":"VIGNALE RIOTORTO","nomeBreve":"Vignale Riotorto","label":"","id":"S06032"},"esterno":false,"offsetX":0,"offsetY":0,"nomeCitta":"A"},{"codReg":13,"tipoStazione":3,"dettZoomStaz":[],"pstaz":[],"mappaCitta":{"urlImagePinpoint":"","urlImageBaloon":""},"codiceStazione":"S06166","codStazione":"S06166","lat":44.294399,"lon":9.948096,"latMappaCitta":0.0,"lonMappaCitta":0.0,"localita":{"nomeLungo":"VILLAFRANCA - BAGNONE","nomeBreve":"Villafranca-Bagn","label":"","id":"S06166"},"esterno":false,"offsetX":0,"offsetY":0,"nomeCitta":"A"},{"codReg":13,"tipoStazione":3,"dettZoomStaz":[],"pstaz":[],"mappaCitta":{"urlImagePinpoint":"","urlImageBaloon":""},"codiceStazione":"S06322","codStazione":"S06322","lat":44.146764,"lon":10.367565,"latMappaCitta":0.0,"lonMappaCitta":0.0,"localita":{"nomeLungo":"VILLETTA S. ROMANO","nomeBreve":"Villetta S. Rom.","label":"","id":"S06322"},"esterno":false,"offsetX":0,"offsetY":0,"nomeCitta":"A"},{"codReg":13,"tipoStazione":3,"dettZoomStaz":[],"pstaz":[],"mappaCitta":{"urlImagePinpoint":"","urlImageBaloon":""},"codiceStazione":"S06425","codStazione":"S06425","lat":43.825856,"lon":11.206206,"latMappaCitta":0.0,"lonMappaCitta":0.0,"localita":{"nomeLungo":"ZAMBRA","nomeBreve":"Zambra","label":"","id":"S06425"},"esterno":false,"offsetX":0,"offsetY":0,"nomeCitta":"A"},{"codReg":13,"tipoStazione":3,"dettZoomStaz":[],"pstaz":[],"mappaCitta":{"urlImagePinpoint":"","urlImageBaloon":""},"codiceStazione":"S06603","codStazione":"S06603","lat":43.958317,"lon":11.322742,"latMappaCitta":0.0,"lonMappaCitta":0.0,"localita":{"nomeLungo":"S.PIERO A SIEVE","nomeBreve":"S.Piero a Sieve","label":"","id":"S06603"},"esterno":false,"offsetX":0,"offsetY":0,"nomeCitta":"A"},{"codReg":13,"tipoStazione":3,"dettZoomStaz":[],"pstaz":[],"mappaCitta":{"urlImagePinpoint":"","urlImageBaloon":""},"codiceStazione":"S06021","codStazione":"S06021","lat":43.551831,"lon":10.50304,"latMappaCitta":0.0,"lonMappaCitta":0.0,"localita":{"nomeLungo":"FAUGLIA - LORENZANA","nomeBreve":"Fauglia-Lorenz.","label":"","id":"S06021"},"esterno":false,"offsetX":0,"offsetY":0,"nomeCitta":"A"},{"codReg":13,"tipoStazione":3,"dettZoomStaz":[],"pstaz":[],"mappaCitta":{"urlImagePinpoint":"","urlImageBaloon":""},"codiceStazione":"S08001","codStazione":"S08001","lat":42.634158,"lon":11.1352,"latMappaCitta":0.0,"lonMappaCitta":0.0,"localita":{"nomeLungo":"ALBERESE","nomeBreve":"Alberese","label":"","id":"S08001"},"esterno":false,"offsetX":0,"offsetY":0,"nomeCitta":"A"},{"codReg":13,"tipoStazione":3,"dettZoomStaz":[],"pstaz":[],"mappaCitta":{"urlImagePinpoint":"","urlImageBaloon":""},"codiceStazione":"S06407","codStazione":"S06407","lat":43.817418,"lon":10.672754,"latMappaCitta":0.0,"lonMappaCitta":0.0,"localita":{"nomeLungo":"ALTOPASCIO","nomeBreve":"Altopascio","label":"","id":"S06407"},"esterno":false,"offsetX":0,"offsetY":0,"nomeCitta":"A"},{"codReg":13,"tipoStazione":3,"dettZoomStaz":[],"pstaz":[],"mappaCitta":{"urlImagePinpoint":"","urlImageBaloon":""},"codiceStazione":"S06727","codStazione":"S06727","lat":43.492482,"lon":10.328827,"latMappaCitta":0.0,"lonMappaCitta":0.0,"localita":{"nomeLungo":"ANTIGNANO","nomeBreve":"Antignano","label":"","id":"S06727"},"esterno":false,"offsetX":0,"offsetY":0,"nomeCitta":"A"},{"codReg":13,"tipoStazione":3,"dettZoomStaz":[{"codiceStazione":"S06915","zoomStartRange":8,"zoomStopRange":9,"pinpointVisibile":true,"pinpointVisible":true,"labelVisibile":true,"labelVisible":true,"codiceRegione":null},{"codiceStazione":"S06915","zoomStartRange":10,"zoomStopRange":11,"pinpointVisibile":true,"pinpointVisible":true,"labelVisibile":true,"labelVisible":true,"codiceRegione":null}],"pstaz":[],"mappaCitta":{"urlImagePinpoint":"","urlImageBaloon":""},"codiceStazione":"S06915","codStazione":"S06915","lat":43.461725,"lon":11.874189,"latMappaCitta":0.0,"lonMappaCitta":0.0,"localita":{"nomeLungo":"AREZZO","nomeBreve":"Arezzo","label":"Arezzo","id":"S06915"},"esterno":false,"offsetX":-4,"offsetY":10,"nomeCitta":"Arezzo"},{"codReg":13,"tipoStazione":3,"dettZoomStaz":[{"codiceStazione":"S06813","zoomStartRange":8,"zoomStopRange":9,"pinpointVisibile":true,"pinpointVisible":true,"labelVisibile":false,"labelVisible":false,"codiceRegione":null},{"codiceStazione":"S06813","zoomStartRange":10,"zoomStopRange":11,"pinpointVisibile":true,"pinpointVisible":true,"labelVisibile":true,"labelVisible":true,"codiceRegione":null}],"pstaz":[],"mappaCitta":{"urlImagePinpoint":"","urlImageBaloon":""},"codiceStazione":"S06813","codStazione":"S06813","lat":43.235245,"lon":11.579237,"latMappaCitta":0.0,"lonMappaCitta":0.0,"localita":{"nomeLungo":"ASCIANO","nomeBreve":"Asciano","label":"","id":"S06813"},"esterno":false,"offsetX":-4,"offsetY":18,"nomeCitta":"Asciano"},{"codReg":13,"tipoStazione":3,"dettZoomStaz":[{"codiceStazione":"S06168","zoomStartRange":8,"zoomStopRange":9,"pinpointVisibile":true,"pinpointVisible":true,"labelVisibile":false,"labelVisible":false,"codiceRegione":null},{"codiceStazione":"S06168","zoomStartRange":10,"zoomStopRange":11,"pinpointVisibile":true,"pinpointVisible":true,"labelVisibile":true,"labelVisible":true,"codiceRegione":null}],"pstaz":[],"mappaCitta":{"urlImagePinpoint":"","urlImageBaloon":""},"codiceStazione":"S06168","codStazione":"S06168","lat":44.209662,"lon":9.970632,"latMappaCitta":0.0,"lonMappaCitta":0.0,"localita":{"nomeLungo":"AULLA","nomeBreve":"Aulla","label":"","id":"S06168"},"esterno":false,"offsetX":-4,"offsetY":10,"nomeCitta":"Aulla"},{"codReg":13,"tipoStazione":3,"dettZoomStaz":[{"codiceStazione":"S06056","zoomStartRange":8,"zoomStopRange":9,"pinpointVisibile":true,"pinpointVisible":true,"labelVisibile":false,"labelVisible":false,"codiceRegione":null},{"codiceStazione":"S06056","zoomStartRange":10,"zoomStopRange":11,"pinpointVisibile":true,"pinpointVisible":true,"labelVisibile":false,"labelVisible":false,"codiceRegione":null}],"pstaz":[],"mappaCitta":{"urlImagePinpoint":"","urlImageBaloon":""},"codiceStazione":"S06056","codStazione":"S06056","lat":43.661224,"lon":10.369478,"latMappaCitta":0.0,"lonMappaCitta":0.0,"localita":{"nomeLungo":"BIVIO MORTELLINI","nomeBreve":"Bivio Mortellini","label":"","id":"S06056"},"esterno":false,"offsetX":93,"offsetY":20,"nomeCitta":"Bivio Mortellini"},{"codReg":13,"tipoStazione":3,"dettZoomStaz":[],"pstaz":[],"mappaCitta":{"urlImagePinpoint":"","urlImageBaloon":""},"codiceStazione":"S06826","codStazione":"S06826","lat":43.382144,"lon":11.277136,"latMappaCitta":0.0,"lonMappaCitta":0.0,"localita":{"nomeLungo":"P.M. BADESSE","nomeBreve":"P.M. Badesse","label":"","id":"S06826"},"esterno":false,"offsetX":0,"offsetY":0,"nomeCitta":"A"},{"codReg":13,"tipoStazione":3,"dettZoomStaz":[],"pstaz":[],"mappaCitta":{"urlImagePinpoint":"","urlImageBaloon":""},"codiceStazione":"S06611","codStazione":"S06611","lat":44.068431,"lon":11.602243,"latMappaCitta":0.0,"lonMappaCitta":0.0,"localita":{"nomeLungo":"BIFORCO","nomeBreve":"Biforco","label":"","id":"S06611"},"esterno":false,"offsetX":0,"offsetY":0,"nomeCitta":"A"},{"codReg":13,"tipoStazione":3,"dettZoomStaz":[],"pstaz":[],"mappaCitta":{"urlImagePinpoint":"","urlImageBaloon":""},"codiceStazione":"S06028","codStazione":"S06028","lat":43.244664,"lon":10.550548,"latMappaCitta":0.0,"lonMappaCitta":0.0,"localita":{"nomeLungo":"BOLGHERI","nomeBreve":"Bolgheri","label":"","id":"S06028"},"esterno":false,"offsetX":0,"offsetY":0,"nomeCitta":"A"},{"codReg":13,"tipoStazione":3,"dettZoomStaz":[],"pstaz":[],"mappaCitta":{"urlImagePinpoint":"","urlImageBaloon":""},"codiceStazione":"S06309","codStazione":"S06309","lat":43.977207,"lon":10.541285,"latMappaCitta":0.0,"lonMappaCitta":0.0,"localita":{"nomeLungo":"BORGO A MOZZANO","nomeBreve":"Borgo a Mozzano","label":"","id":"S06309"},"esterno":false,"offsetX":0,"offsetY":0,"nomeCitta":"A"},{"codReg":13,"tipoStazione":3,"dettZoomStaz":[{"codiceStazione":"S06604","zoomStartRange":8,"zoomStopRange":9,"pinpointVisibile":true,"pinpointVisible":true,"labelVisibile":false,"labelVisible":false,"codiceRegione":null},{"codiceStazione":"S06604","zoomStartRange":10,"zoomStopRange":11,"pinpointVisibile":true,"pinpointVisible":true,"labelVisibile":true,"labelVisible":true,"codiceRegione":null}],"pstaz":[],"mappaCitta":{"urlImagePinpoint":"","urlImageBaloon":""},"codiceStazione":"S06604","codStazione":"S06604","lat":43.959822,"lon":11.380422,"latMappaCitta":0.0,"lonMappaCitta":0.0,"localita":{"nomeLungo":"BORGO S. LORENZO","nomeBreve":"Borgo S.L.","label":"","id":"S06604"},"esterno":false,"offsetX":0,"offsetY":0,"nomeCitta":"Borgo S. L."},{"codReg":13,"tipoStazione":3,"dettZoomStaz":[],"pstaz":[],"mappaCitta":{"urlImagePinpoint":"","urlImageBaloon":""},"codiceStazione":"S06704","codStazione":"S06704","lat":43.953279,"lon":11.400076,"latMappaCitta":0.0,"lonMappaCitta":0.0,"localita":{"nomeLungo":"BORGO S.L.RIMORELLI","nomeBreve":"Borgo S.L.Rimor.","label":"","id":"S06704"},"esterno":false,"offsetX":0,"offsetY":0,"nomeCitta":"A"},{"codReg":13,"tipoStazione":3,"dettZoomStaz":[],"pstaz":[],"mappaCitta":{"urlImagePinpoint":"","urlImageBaloon":""},"codiceStazione":"S06921","codStazione":"S06921","lat":43.261104,"lon":11.971245,"latMappaCitta":0.0,"lonMappaCitta":0.0,"localita":{"nomeLungo":"CAMUCIA CORTONA","nomeBreve":"Camucia Cortona","label":"","id":"S06921"},"esterno":false,"offsetX":0,"offsetY":0,"nomeCitta":"A"},{"codReg":13,"tipoStazione":3,"dettZoomStaz":[],"pstaz":[],"mappaCitta":{"urlImagePinpoint":"","urlImageBaloon":""},"codiceStazione":"S08006","codStazione":"S08006","lat":42.407974,"lon":11.370982,"latMappaCitta":0.0,"lonMappaCitta":0.0,"localita":{"nomeLungo":"CAPALBIO","nomeBreve":"Capalbio","label":"","id":"S08006"},"esterno":false,"offsetX":0,"offsetY":0,"nomeCitta":"A"},{"codReg":13,"tipoStazione":3,"dettZoomStaz":[],"pstaz":[],"mappaCitta":{"urlImagePinpoint":"","urlImageBaloon":""},"codiceStazione":"S06005","codStazione":"S06005","lat":44.051239,"lon":10.062927,"latMappaCitta":0.0,"lonMappaCitta":0.0,"localita":{"nomeLungo":"CARRARA AVENZA","nomeBreve":"Carrara Avenza","label":"","id":"S06005"},"esterno":false,"offsetX":0,"offsetY":0,"nomeCitta":"A"},{"codReg":13,"tipoStazione":3,"dettZoomStaz":[],"pstaz":[],"mappaCitta":{"urlImagePinpoint":"","urlImageBaloon":""},"codiceStazione":"S06505","codStazione":"S06505","lat":43.674542,"lon":10.545225,"latMappaCitta":0.0,"lonMappaCitta":0.0,"localita":{"nomeLungo":"CASCINA","nomeBreve":"Cascina","label":"","id":"S06505"},"esterno":false,"offsetX":0,"offsetY":0,"nomeCitta":"A"},{"codReg":13,"tipoStazione":3,"dettZoomStaz":[],"pstaz":[],"mappaCitta":{"urlImagePinpoint":"","urlImageBaloon":""},"codiceStazione":"S06751","codStazione":"S06751","lat":43.328581,"lon":10.662975,"latMappaCitta":0.0,"lonMappaCitta":0.0,"localita":{"nomeLungo":"CASINO DI TERRA","nomeBreve":"Casino di Terra","label":"","id":"S06751"},"esterno":false,"offsetX":0,"offsetY":0,"nomeCitta":"A"},{"codReg":13,"tipoStazione":3,"dettZoomStaz":[],"pstaz":[],"mappaCitta":{"urlImagePinpoint":"","urlImageBaloon":""},"codiceStazione":"S05122","codStazione":"S05122","lat":44.012359,"lon":10.91538,"latMappaCitta":0.0,"lonMappaCitta":0.0,"localita":{"nomeLungo":"CASTAGNO","nomeBreve":"Castagno","label":"","id":"S05122"},"esterno":false,"offsetX":0,"offsetY":0,"nomeCitta":"A"},{"codReg":13,"tipoStazione":3,"dettZoomStaz":[],"pstaz":[],"mappaCitta":{"urlImagePinpoint":"","urlImageBaloon":""},"codiceStazione":"S06808","codStazione":"S06808","lat":43.408744,"lon":11.212379,"latMappaCitta":0.0,"lonMappaCitta":0.0,"localita":{"nomeLungo":"CASTELLINA CH","nomeBreve":"Castellina Ch.","label":"","id":"S06808"},"esterno":false,"offsetX":0,"offsetY":0,"nomeCitta":"A"},{"codReg":13,"tipoStazione":3,"dettZoomStaz":[],"pstaz":[],"mappaCitta":{"urlImagePinpoint":"","urlImageBaloon":""},"codiceStazione":"S06300","codStazione":"S06300","lat":44.116351,"lon":10.409054,"latMappaCitta":0.0,"lonMappaCitta":0.0,"localita":{"nomeLungo":"CASTELNUOVO DI GARFAGNANA","nomeBreve":"Castelnuovo Gar.","label":"","id":"S06300"},"esterno":false,"offsetX":0,"offsetY":0,"nomeCitta":"A"},{"codReg":13,"tipoStazione":4,"dettZoomStaz":[{"codiceStazione":"S06923","zoomStartRange":8,"zoomStopRange":9,"pinpointVisibile":true,"pinpointVisible":true,"labelVisibile":true,"labelVisible":true,"codiceRegione":null},{"codiceStazione":"S06923","zoomStartRange":10,"zoomStopRange":11,"pinpointVisibile":true,"pinpointVisible":true,"labelVisibile":true,"labelVisible":true,"codiceRegione":null}],"pstaz":[],"mappaCitta":{"urlImagePinpoint":"","urlImageBaloon":""},"codiceStazione":"S06923","codStazione":"S06923","lat":43.123195,"lon":12.032077,"latMappaCitta":0.0,"lonMappaCitta":0.0,"localita":{"nomeLungo":"CASTIGLION DEL LAGO","nomeBreve":"Castigl.del Lago","label":"","id":"S06923"},"esterno":true,"offsetX":110,"offsetY":0,"nomeCitta":"Castigl. del Lago"},{"codReg":13,"tipoStazione":3,"dettZoomStaz":[{"codiceStazione":"S06026","zoomStartRange":8,"zoomStopRange":9,"pinpointVisibile":true,"pinpointVisible":true,"labelVisibile":false,"labelVisible":false,"codiceRegione":null},{"codiceStazione":"S06026","zoomStartRange":10,"zoomStopRange":11,"pinpointVisibile":true,"pinpointVisible":true,"labelVisibile":true,"labelVisible":true,"codiceRegione":null}],"pstaz":[],"mappaCitta":{"urlImagePinpoint":"","urlImageBaloon":""},"codiceStazione":"S06026","codStazione":"S06026","lat":43.31028,"lon":10.514225,"latMappaCitta":0.0,"lonMappaCitta":0.0,"localita":{"nomeLungo":"CECINA","nomeBreve":"Cecina","label":"","id":"S06026"},"esterno":false,"offsetX":0,"offsetY":0,"nomeCitta":"Cecina"},{"codReg":13,"tipoStazione":3,"dettZoomStaz":[],"pstaz":[],"mappaCitta":{"urlImagePinpoint":"","urlImageBaloon":""},"codiceStazione":"S06911","codStazione":"S06911","lat":43.480478,"lon":11.617609,"latMappaCitta":0.0,"lonMappaCitta":0.0,"localita":{"nomeLungo":"BUCINE","nomeBreve":"Bucine","label":"","id":"S06911"},"esterno":false,"offsetX":0,"offsetY":0,"nomeCitta":"A"},{"codReg":13,"tipoStazione":3,"dettZoomStaz":[],"pstaz":[],"mappaCitta":{"urlImagePinpoint":"","urlImageBaloon":""},"codiceStazione":"S06822","codStazione":"S06822","lat":42.94028,"lon":11.283536,"latMappaCitta":0.0,"lonMappaCitta":0.0,"localita":{"nomeLungo":"CIVITELLA PAGANICO","nomeBreve":"Civitella","label":"","id":"S06822"},"esterno":false,"offsetX":0,"offsetY":0,"nomeCitta":"A"},{"codReg":13,"tipoStazione":3,"dettZoomStaz":[{"codiceStazione":"S06840","zoomStartRange":8,"zoomStopRange":9,"pinpointVisibile":true,"pinpointVisible":true,"labelVisibile":false,"labelVisible":false,"codiceRegione":null},{"codiceStazione":"S06840","zoomStartRange":10,"zoomStopRange":11,"pinpointVisibile":true,"pinpointVisible":true,"labelVisibile":true,"labelVisible":true,"codiceRegione":null}],"pstaz":[],"mappaCitta":{"urlImagePinpoint":"","urlImageBaloon":""},"codiceStazione":"S06840","codStazione":"S06840","lat":43.421908,"lon":11.127681,"latMappaCitta":0.0,"lonMappaCitta":0.0,"localita":{"nomeLungo":"COLLE VAL D`ELSA","nomeBreve":"COLLE V.D'ELSA","label":"","id":"S06840"},"esterno":false,"offsetX":88,"offsetY":20,"nomeCitta":"Colle Val d`Elsa"},{"codReg":13,"tipoStazione":3,"dettZoomStaz":[],"pstaz":[],"mappaCitta":{"urlImagePinpoint":"","urlImageBaloon":""},"codiceStazione":"S06018","codStazione":"S06018","lat":43.586586,"lon":10.470534,"latMappaCitta":0.0,"lonMappaCitta":0.0,"localita":{"nomeLungo":"COLLESALVETTI","nomeBreve":"Collesalvetti","label":"","id":"S06018"},"esterno":false,"offsetX":0,"offsetY":0,"nomeCitta":"A"},{"codReg":13,"tipoStazione":3,"dettZoomStaz":[],"pstaz":[],"mappaCitta":{"urlImagePinpoint":"","urlImageBaloon":""},"codiceStazione":"S06902","codStazione":"S06902","lat":43.782527,"lon":11.358695,"latMappaCitta":0.0,"lonMappaCitta":0.0,"localita":{"nomeLungo":"COMPIOBBI","nomeBreve":"Compiobbi","label":"","id":"S06902"},"esterno":false,"offsetX":0,"offsetY":0,"nomeCitta":"A"},{"codReg":13,"tipoStazione":4,"dettZoomStaz":[{"codiceStazione":"S06007","zoomStartRange":8,"zoomStopRange":9,"pinpointVisibile":true,"pinpointVisible":true,"labelVisibile":true,"labelVisible":true,"codiceRegione":null},{"codiceStazione":"S06007","zoomStartRange":10,"zoomStopRange":11,"pinpointVisibile":true,"pinpointVisible":true,"labelVisibile":true,"labelVisible":true,"codiceRegione":null}],"pstaz":[],"mappaCitta":{"urlImagePinpoint":"","urlImageBaloon":""},"codiceStazione":"S06007","codStazione":"S06007","lat":44.108865,"lon":9.960657,"latMappaCitta":0.0,"lonMappaCitta":0.0,"localita":{"nomeLungo":"SARZANA","nomeBreve":"Sarzana","label":"","id":"S06007"},"esterno":true,"offsetX":-4,"offsetY":10,"nomeCitta":"Sarzana"},{"codReg":13,"tipoStazione":3,"dettZoomStaz":[],"pstaz":[],"mappaCitta":{"urlImagePinpoint":"","urlImageBaloon":""},"codiceStazione":"S06035","codStazione":"S06035","lat":42.942002,"lon":10.836798,"latMappaCitta":0.0,"lonMappaCitta":0.0,"localita":{"nomeLungo":"SCARLINO","nomeBreve":"Scarlino","label":"","id":"S06035"},"esterno":false,"offsetX":0,"offsetY":0,"nomeCitta":"A"},{"codReg":13,"tipoStazione":3,"dettZoomStaz":[],"pstaz":[],"mappaCitta":{"urlImagePinpoint":"","urlImageBaloon":""},"codiceStazione":"S06164","codStazione":"S06164","lat":44.34431,"lon":9.911853,"latMappaCitta":0.0,"lonMappaCitta":0.0,"localita":{"nomeLungo":"SCORCETOLI","nomeBreve":"Scorcetoli","label":"","id":"S06164"},"esterno":false,"offsetX":0,"offsetY":0,"nomeCitta":"A"},{"codReg":13,"tipoStazione":3,"dettZoomStaz":[],"pstaz":[],"mappaCitta":{"urlImagePinpoint":"","urlImageBaloon":""},"codiceStazione":"S06418","codStazione":"S06418","lat":43.833297,"lon":11.191941,"latMappaCitta":0.0,"lonMappaCitta":0.0,"localita":{"nomeLungo":"SESTO FIORENTINO","nomeBreve":"Sesto Fiorentino","label":"","id":"S06418"},"esterno":false,"offsetX":0,"offsetY":0,"nomeCitta":"A"},{"codReg":13,"tipoStazione":3,"dettZoomStaz":[],"pstaz":[],"mappaCitta":{"urlImagePinpoint":"","urlImageBaloon":""},"codiceStazione":"S06903","codStazione":"S06903","lat":43.790892,"lon":11.394608,"latMappaCitta":0.0,"lonMappaCitta":0.0,"localita":{"nomeLungo":"SIECI","nomeBreve":"Sieci","label":"","id":"S06903"},"esterno":false,"offsetX":0,"offsetY":0,"nomeCitta":"A"},{"codReg":13,"tipoStazione":3,"dettZoomStaz":[{"codiceStazione":"S06809","zoomStartRange":8,"zoomStopRange":9,"pinpointVisibile":true,"pinpointVisible":true,"labelVisibile":true,"labelVisible":true,"codiceRegione":null},{"codiceStazione":"S06809","zoomStartRange":10,"zoomStopRange":11,"pinpointVisibile":true,"pinpointVisible":true,"labelVisibile":true,"labelVisible":true,"codiceRegione":null}],"pstaz":[],"mappaCitta":{"urlImagePinpoint":"","urlImageBaloon":""},"codiceStazione":"S06809","codStazione":"S06809","lat":43.331708,"lon":11.322972,"latMappaCitta":0.0,"lonMappaCitta":0.0,"localita":{"nomeLungo":"SIENA","nomeBreve":"Siena","label":"Siena","id":"S06809"},"esterno":false,"offsetX":43,"offsetY":20,"nomeCitta":"Siena"},{"codReg":13,"tipoStazione":3,"dettZoomStaz":[],"pstaz":[],"mappaCitta":{"urlImagePinpoint":"","urlImageBaloon":""},"codiceStazione":"S06513","codStazione":"S06513","lat":43.775441,"lon":11.095961,"latMappaCitta":0.0,"lonMappaCitta":0.0,"localita":{"nomeLungo":"SIGNA","nomeBreve":"Signa","label":"","id":"S06513"},"esterno":false,"offsetX":0,"offsetY":0,"nomeCitta":"A"},{"codReg":13,"tipoStazione":3,"dettZoomStaz":[],"pstaz":[],"mappaCitta":{"urlImagePinpoint":"","urlImageBaloon":""},"codiceStazione":"S06852","codStazione":"S06852","lat":43.216189,"lon":11.744866,"latMappaCitta":0.0,"lonMappaCitta":0.0,"localita":{"nomeLungo":"SINALUNGA","nomeBreve":"Sinalunga","label":"","id":"S06852"},"esterno":false,"offsetX":0,"offsetY":0,"nomeCitta":"A"},{"codReg":13,"tipoStazione":3,"dettZoomStaz":[],"pstaz":[],"mappaCitta":{"urlImagePinpoint":"","urlImageBaloon":""},"codiceStazione":"S06824","codStazione":"S06824","lat":42.929333,"lon":11.118621,"latMappaCitta":0.0,"lonMappaCitta":0.0,"localita":{"nomeLungo":"STICCIANO","nomeBreve":"Sticciano","label":"","id":"S06824"},"esterno":false,"offsetX":0,"offsetY":0,"nomeCitta":"A"},{"codReg":13,"tipoStazione":3,"dettZoomStaz":[],"pstaz":[],"mappaCitta":{"urlImagePinpoint":"","urlImageBaloon":""},"codiceStazione":"S08002","codStazione":"S08002","lat":42.56461,"lon":11.164524,"latMappaCitta":0.0,"lonMappaCitta":0.0,"localita":{"nomeLungo":"TALAMONE","nomeBreve":"Talamone","label":"","id":"S08002"},"esterno":false,"offsetX":0,"offsetY":0,"nomeCitta":"A"},{"codReg":13,"tipoStazione":3,"dettZoomStaz":[],"pstaz":[],"mappaCitta":{"urlImagePinpoint":"","urlImageBaloon":""},"codiceStazione":"S06900","codStazione":"S06900","lat":43.776856,"lon":11.27702,"latMappaCitta":0.0,"lonMappaCitta":0.0,"localita":{"nomeLungo":"FIRENZE CAMPO MARTE","nomeBreve":"Firenze C.Marte","label":"","id":"S06900"},"esterno":false,"offsetX":0,"offsetY":0,"nomeCitta":"A"},{"codReg":13,"tipoStazione":3,"dettZoomStaz":[],"pstaz":[],"mappaCitta":{"urlImagePinpoint":"","urlImageBaloon":""},"codiceStazione":"S06515","codStazione":"S06515","lat":43.792161,"lon":11.19844,"latMappaCitta":0.0,"lonMappaCitta":0.0,"localita":{"nomeLungo":"FIRENZE CASCINE","nomeBreve":"Firenze Cascine","label":"","id":"S06515"},"esterno":false,"offsetX":0,"offsetY":0,"nomeCitta":"A"},{"codReg":13,"tipoStazione":3,"dettZoomStaz":[],"pstaz":[],"mappaCitta":{"urlImagePinpoint":"","urlImageBaloon":""},"codiceStazione":"S06419","codStazione":"S06419","lat":43.819444,"lon":11.21838,"latMappaCitta":0.0,"lonMappaCitta":0.0,"localita":{"nomeLungo":"FIRENZE CASTELLO","nomeBreve":"Firenze Castello","label":"","id":"S06419"},"esterno":false,"offsetX":0,"offsetY":0,"nomeCitta":"A"},{"codReg":13,"tipoStazione":3,"dettZoomStaz":[{"codiceStazione":"S06908","zoomStartRange":8,"zoomStopRange":9,"pinpointVisibile":true,"pinpointVisible":true,"labelVisibile":false,"labelVisible":false,"codiceRegione":null},{"codiceStazione":"S06908","zoomStartRange":10,"zoomStopRange":11,"pinpointVisibile":true,"pinpointVisible":true,"labelVisibile":true,"labelVisible":true,"codiceRegione":null}],"pstaz":[],"mappaCitta":{"urlImagePinpoint":"","urlImageBaloon":""},"codiceStazione":"S06908","codStazione":"S06908","lat":43.621596,"lon":11.473652,"latMappaCitta":0.0,"lonMappaCitta":0.0,"localita":{"nomeLungo":"FIGLINE VALDARNO","nomeBreve":"Figline Valdarno","label":"Figline","id":"S06908"},"esterno":false,"offsetX":85,"offsetY":0,"nomeCitta":"Figline Valdarno"},{"codReg":13,"tipoStazione":3,"dettZoomStaz":[],"pstaz":[],"mappaCitta":{"urlImagePinpoint":"","urlImageBaloon":""},"codiceStazione":"S06165","codStazione":"S06165","lat":44.33137,"lon":9.933352,"latMappaCitta":0.0,"lonMappaCitta":0.0,"localita":{"nomeLungo":"FILATTIERA","nomeBreve":"Filattiera","label":"","id":"S06165"},"esterno":false,"offsetX":0,"offsetY":0,"nomeCitta":"A"},{"codReg":13,"tipoStazione":3,"dettZoomStaz":[],"pstaz":[],"mappaCitta":{"urlImagePinpoint":"","urlImageBaloon":""},"codiceStazione":"S06223","codStazione":"S06223","lat":44.202672,"lon":10.091691,"latMappaCitta":0.0,"lonMappaCitta":0.0,"localita":{"nomeLungo":"FIVIZZANO - GASSANO","nomeBreve":"Fivizzano-Gass.","label":"","id":"S06223"},"esterno":false,"offsetX":0,"offsetY":0,"nomeCitta":"A"},{"codReg":13,"tipoStazione":3,"dettZoomStaz":[],"pstaz":[],"mappaCitta":{"urlImagePinpoint":"","urlImageBaloon":""},"codiceStazione":"S06222","codStazione":"S06222","lat":44.201526,"lon":10.05953,"latMappaCitta":0.0,"lonMappaCitta":0.0,"localita":{"nomeLungo":"FIVIZZANO ROMETTA - SOLIERA","nomeBreve":"F.Rometta-Solie.","label":"","id":"S06222"},"esterno":false,"offsetX":0,"offsetY":0,"nomeCitta":"A"},{"codReg":13,"tipoStazione":3,"dettZoomStaz":[],"pstaz":[],"mappaCitta":{"urlImagePinpoint":"","urlImageBaloon":""},"codiceStazione":"S06033","codStazione":"S06033","lat":42.926687,"lon":10.755775,"latMappaCitta":0.0,"lonMappaCitta":0.0,"localita":{"nomeLungo":"FOLLONICA","nomeBreve":"Follonica","label":"","id":"S06033"},"esterno":false,"offsetX":0,"offsetY":0,"nomeCitta":"A"},{"codReg":13,"tipoStazione":3,"dettZoomStaz":[],"pstaz":[],"mappaCitta":{"urlImagePinpoint":"","urlImageBaloon":""},"codiceStazione":"S06304","codStazione":"S06304","lat":44.045253,"lon":10.473173,"latMappaCitta":0.0,"lonMappaCitta":0.0,"localita":{"nomeLungo":"FORNACI DI BARGA","nomeBreve":"Fornaci di Barga","label":"","id":"S06304"},"esterno":false,"offsetX":0,"offsetY":0,"nomeCitta":"A"},{"codReg":13,"tipoStazione":3,"dettZoomStaz":[],"pstaz":[],"mappaCitta":{"urlImagePinpoint":"","urlImageBaloon":""},"codiceStazione":"S06605","codStazione":"S06605","lat":43.978449,"lon":11.407511,"latMappaCitta":0.0,"lonMappaCitta":0.0,"localita":{"nomeLungo":"PANICAGLIA","nomeBreve":"Panicaglia","label":"","id":"S06605"},"esterno":false,"offsetX":0,"offsetY":0,"nomeCitta":"A"},{"codReg":13,"tipoStazione":4,"dettZoomStaz":[{"codiceStazione":"S05014","zoomStartRange":8,"zoomStopRange":9,"pinpointVisibile":true,"pinpointVisible":true,"labelVisibile":true,"labelVisible":true,"codiceRegione":null},{"codiceStazione":"S05014","zoomStartRange":10,"zoomStopRange":11,"pinpointVisibile":true,"pinpointVisible":true,"labelVisibile":true,"labelVisible":true,"codiceRegione":null}],"pstaz":[],"mappaCitta":{"urlImagePinpoint":"","urlImageBaloon":""},"codiceStazione":"S05014","codStazione":"S05014","lat":44.810203,"lon":10.32837,"latMappaCitta":0.0,"lonMappaCitta":0.0,"localita":{"nomeLungo":"PARMA","nomeBreve":"Parma","label":"Parma","id":"S05014"},"esterno":true,"offsetX":-4,"offsetY":18,"nomeCitta":"Parma"},{"codReg":13,"tipoStazione":3,"dettZoomStaz":[],"pstaz":[],"mappaCitta":{"urlImagePinpoint":"","urlImageBaloon":""},"codiceStazione":"S05115","codStazione":"S05115","lat":43.993948,"lon":10.919676,"latMappaCitta":0.0,"lonMappaCitta":0.0,"localita":{"nomeLungo":"CORBEZZI","nomeBreve":"Corbezzi","label":"","id":"S05115"},"esterno":false,"offsetX":0,"offsetY":0,"nomeCitta":"A"},{"codReg":13,"tipoStazione":3,"dettZoomStaz":[],"pstaz":[],"mappaCitta":{"urlImagePinpoint":"","urlImageBaloon":""},"codiceStazione":"S06036","codStazione":"S06036","lat":42.947959,"lon":10.9338,"latMappaCitta":0.0,"lonMappaCitta":0.0,"localita":{"nomeLungo":"GAVORRANO","nomeBreve":"Gavorrano","label":"","id":"S06036"},"esterno":false,"offsetX":0,"offsetY":0,"nomeCitta":"A"},{"codReg":13,"tipoStazione":3,"dettZoomStaz":[],"pstaz":[],"mappaCitta":{"urlImagePinpoint":"","urlImageBaloon":""},"codiceStazione":"S06224","codStazione":"S06224","lat":44.191069,"lon":10.109245,"latMappaCitta":0.0,"lonMappaCitta":0.0,"localita":{"nomeLungo":"GRAGNOLA","nomeBreve":"Gragnola","label":"","id":"S06224"},"esterno":false,"offsetX":0,"offsetY":0,"nomeCitta":"A"},{"codReg":13,"tipoStazione":3,"dettZoomStaz":[],"pstaz":[],"mappaCitta":{"urlImagePinpoint":"","urlImageBaloon":""},"codiceStazione":"S06801","codStazione":"S06801","lat":43.652244,"lon":10.945223,"latMappaCitta":0.0,"lonMappaCitta":0.0,"localita":{"nomeLungo":"GRANAIOLO","nomeBreve":"Granaiolo","label":"","id":"S06801"},"esterno":false,"offsetX":0,"offsetY":0,"nomeCitta":"A"},{"codReg":13,"tipoStazione":3,"dettZoomStaz":[{"codiceStazione":"S06039","zoomStartRange":8,"zoomStopRange":9,"pinpointVisibile":true,"pinpointVisible":true,"labelVisibile":true,"labelVisible":true,"codiceRegione":null},{"codiceStazione":"S06039","zoomStartRange":10,"zoomStopRange":11,"pinpointVisibile":true,"pinpointVisible":true,"labelVisibile":true,"labelVisible":true,"codiceRegione":null}],"pstaz":[],"mappaCitta":{"urlImagePinpoint":"","urlImageBaloon":""},"codiceStazione":"S06039","codStazione":"S06039","lat":42.76728,"lon":11.1065,"latMappaCitta":0.0,"lonMappaCitta":0.0,"localita":{"nomeLungo":"GROSSETO","nomeBreve":"Grosseto","label":"Grosseto","id":"S06039"},"esterno":false,"offsetX":-4,"offsetY":18,"nomeCitta":"Grosseto"},{"codReg":13,"tipoStazione":3,"dettZoomStaz":[],"pstaz":[],"mappaCitta":{"urlImagePinpoint":"","urlImageBaloon":""},"codiceStazione":"S06424","codStazione":"S06424","lat":43.839624,"lon":11.182656,"latMappaCitta":0.0,"lonMappaCitta":0.0,"localita":{"nomeLungo":"IL NETO","nomeBreve":"Il Neto","label":"","id":"S06424"},"esterno":false,"offsetX":0,"offsetY":0,"nomeCitta":"A"},{"codReg":13,"tipoStazione":3,"dettZoomStaz":[],"pstaz":[],"mappaCitta":{"urlImagePinpoint":"","urlImageBaloon":""},"codiceStazione":"S06912","codStazione":"S06912","lat":43.496458,"lon":11.660573,"latMappaCitta":0.0,"lonMappaCitta":0.0,"localita":{"nomeLungo":"LATERINA","nomeBreve":"Laterina","label":"","id":"S06912"},"esterno":false,"offsetX":0,"offsetY":0,"nomeCitta":"A"},{"codReg":13,"tipoStazione":3,"dettZoomStaz":[],"pstaz":[],"mappaCitta":{"urlImagePinpoint":"","urlImageBaloon":""},"codiceStazione":"S06308","codStazione":"S06308","lat":44.003447,"lon":10.551631,"latMappaCitta":0.0,"lonMappaCitta":0.0,"localita":{"nomeLungo":"BAGNI DI LUCCA","nomeBreve":"Bagni di Lucca","label":"","id":"S06308"},"esterno":false,"offsetX":0,"offsetY":0,"nomeCitta":"A"},{"codReg":13,"tipoStazione":3,"dettZoomStaz":[],"pstaz":[],"mappaCitta":{"urlImagePinpoint":"","urlImageBaloon":""},"codiceStazione":"S06030","codStazione":"S06030","lat":43.100366,"lon":10.539823,"latMappaCitta":0.0,"lonMappaCitta":0.0,"localita":{"nomeLungo":"S. VINCENZO","nomeBreve":"S. Vincenzo","label":"","id":"S06030"},"esterno":false,"offsetX":0,"offsetY":0,"nomeCitta":"A"},{"codReg":13,"tipoStazione":3,"dettZoomStaz":[],"pstaz":[],"mappaCitta":{"urlImagePinpoint":"","urlImageBaloon":""},"codiceStazione":"S06910","codStazione":"S06910","lat":43.525165,"lon":11.563983,"latMappaCitta":0.0,"lonMappaCitta":0.0,"localita":{"nomeLungo":"MONTEVARCHI TERRANUOVA","nomeBreve":"Montevarchi T.","label":"","id":"S06910"},"esterno":false,"offsetX":0,"offsetY":0,"nomeCitta":"A"},{"codReg":13,"tipoStazione":3,"dettZoomStaz":[],"pstaz":[],"mappaCitta":{"urlImagePinpoint":"","urlImageBaloon":""},"codiceStazione":"S06403","codStazione":"S06403","lat":43.83172,"lon":10.428321,"latMappaCitta":0.0,"lonMappaCitta":0.0,"localita":{"nomeLungo":"DOPPIO BIVIO MONTUOLO","nomeBreve":"D.B.Montuolo","label":"","id":"S06403"},"esterno":false,"offsetX":0,"offsetY":0,"nomeCitta":"A"},{"codReg":13,"tipoStazione":3,"dettZoomStaz":[],"pstaz":[],"mappaCitta":{"urlImagePinpoint":"","urlImageBaloon":""},"codiceStazione":"S06225","codStazione":"S06225","lat":44.165637,"lon":10.123827,"latMappaCitta":0.0,"lonMappaCitta":0.0,"localita":{"nomeLungo":"MONZONE-M.DEI BANCHI-ISOLANO","nomeBreve":"Monzone","label":"","id":"S06225"},"esterno":false,"offsetX":0,"offsetY":0,"nomeCitta":"A"},{"codReg":13,"tipoStazione":3,"dettZoomStaz":[],"pstaz":[],"mappaCitta":{"urlImagePinpoint":"","urlImageBaloon":""},"codiceStazione":"S06876","codStazione":"S06876","lat":43.11398,"lon":11.400394,"latMappaCitta":0.0,"lonMappaCitta":0.0,"localita":{"nomeLungo":"MURLO","nomeBreve":"Murlo","label":"","id":"S06876"},"esterno":false,"offsetX":0,"offsetY":0,"nomeCitta":"A"},{"codReg":13,"tipoStazione":3,"dettZoomStaz":[],"pstaz":[],"mappaCitta":{"urlImagePinpoint":"","urlImageBaloon":""},"codiceStazione":"S06417","codStazione":"S06417","lat":43.856429,"lon":11.14537,"latMappaCitta":0.0,"lonMappaCitta":0.0,"localita":{"nomeLungo":"CALENZANO","nomeBreve":"Calenzano","label":"","id":"S06417"},"esterno":false,"offsetX":0,"offsetY":0,"nomeCitta":"A"},